[
  {
    "name": "Darwin",
    "postcode": 800,
    "state": "NT",
    "lat": -12.801028,
    "lon": 130.955789
  },
  {
    "name": "Alawa",
    "postcode": 810,
    "state": "NT",
    "lat": -12.378451,
    "lon": 130.877014
  },
  {
    "name": "Brinkin",
    "postcode": 810,
    "state": "NT",
    "lat": -12.367769,
    "lon": 130.869808
  },
  {
    "name": "Casuarina",
    "postcode": 810,
    "state": "NT",
    "lat": -12.376597,
    "lon": 130.850489
  },
  {
    "name": "Jingili",
    "postcode": 810,
    "state": "NT",
    "lat": -12.385761,
    "lon": 130.873726
  },
  {
    "name": "Lee point",
    "postcode": 810,
    "state": "NT",
    "lat": -12.360865,
    "lon": 130.891349
  },
  {
    "name": "Millner",
    "postcode": 810,
    "state": "NT",
    "lat": -12.39087,
    "lon": 130.864144
  },
  {
    "name": "Moil",
    "postcode": 810,
    "state": "NT",
    "lat": -12.387001,
    "lon": 130.879351
  },
  {
    "name": "Nakara",
    "postcode": 810,
    "state": "NT",
    "lat": -12.369175,
    "lon": 130.87899
  },
  {
    "name": "Nightcliff",
    "postcode": 810,
    "state": "NT",
    "lat": -12.382572,
    "lon": 130.853877
  },
  {
    "name": "Rapid creek",
    "postcode": 810,
    "state": "NT",
    "lat": -12.387231,
    "lon": 130.864402
  },
  {
    "name": "Tiwi",
    "postcode": 810,
    "state": "NT",
    "lat": -12.363913,
    "lon": 130.87719
  },
  {
    "name": "Wagaman",
    "postcode": 810,
    "state": "NT",
    "lat": -12.379955,
    "lon": 130.886362
  },
  {
    "name": "Wanguri",
    "postcode": 810,
    "state": "NT",
    "lat": -12.37041,
    "lon": 130.888433
  },
  {
    "name": "Karama",
    "postcode": 812,
    "state": "NT",
    "lat": -12.400091,
    "lon": 130.913672
  },
  {
    "name": "Leanyer",
    "postcode": 812,
    "state": "NT",
    "lat": -12.376727,
    "lon": 130.900653
  },
  {
    "name": "Malak",
    "postcode": 812,
    "state": "NT",
    "lat": -12.392528,
    "lon": 130.904018
  },
  {
    "name": "Marrara",
    "postcode": 812,
    "state": "NT",
    "lat": -12.396566,
    "lon": 130.882733
  },
  {
    "name": "Wulagi",
    "postcode": 812,
    "state": "NT",
    "lat": -12.384714,
    "lon": 130.897765
  },
  {
    "name": "Bagot",
    "postcode": 820,
    "state": "NT",
    "lat": -12.410444,
    "lon": 130.856124
  },
  {
    "name": "Bayview",
    "postcode": 820,
    "state": "NT",
    "lat": -12.440944,
    "lon": 130.856539
  },
  {
    "name": "Charles darwin",
    "postcode": 820,
    "state": "NT",
    "lat": -12.443893,
    "lon": 130.844191
  },
  {
    "name": "Coonawarra",
    "postcode": 820,
    "state": "NT",
    "lat": -12.430427,
    "lon": 130.882375
  },
  {
    "name": "Cullen bay",
    "postcode": 820,
    "state": "NT",
    "lat": -12.454108,
    "lon": 130.822898
  },
  {
    "name": "East point",
    "postcode": 820,
    "state": "NT",
    "lat": -12.426947,
    "lon": 130.836128
  },
  {
    "name": "Fannie bay",
    "postcode": 820,
    "state": "NT",
    "lat": -12.423707,
    "lon": 130.836623
  },
  {
    "name": "Larrakeyah",
    "postcode": 820,
    "state": "NT",
    "lat": -12.459211,
    "lon": 130.830686
  },
  {
    "name": "Ludmilla",
    "postcode": 820,
    "state": "NT",
    "lat": -12.425888,
    "lon": 130.851446
  },
  {
    "name": "Parap",
    "postcode": 820,
    "state": "NT",
    "lat": -12.432181,
    "lon": 130.84331
  },
  {
    "name": "Stuart park",
    "postcode": 820,
    "state": "NT",
    "lat": -12.4389,
    "lon": 130.843067
  },
  {
    "name": "The gardens",
    "postcode": 820,
    "state": "NT",
    "lat": -12.46303,
    "lon": 130.841596
  },
  {
    "name": "The narrows",
    "postcode": 820,
    "state": "NT",
    "lat": -12.425149,
    "lon": 130.859165
  },
  {
    "name": "Winnellie",
    "postcode": 820,
    "state": "NT",
    "lat": -12.426641,
    "lon": 130.882367
  },
  {
    "name": "Woolner",
    "postcode": 820,
    "state": "NT",
    "lat": -12.43754,
    "lon": 130.848872
  },
  {
    "name": "Berrimah",
    "postcode": 828,
    "state": "NT",
    "lat": -12.474896,
    "lon": 130.907378
  },
  {
    "name": "Knuckey lagoon",
    "postcode": 828,
    "state": "NT",
    "lat": -12.426825,
    "lon": 130.934141
  },
  {
    "name": "Holtze",
    "postcode": 829,
    "state": "NT",
    "lat": -14.460879,
    "lon": 132.280002
  },
  {
    "name": "Driver",
    "postcode": 830,
    "state": "NT",
    "lat": -12.487233,
    "lon": 130.972637
  },
  {
    "name": "Durack",
    "postcode": 830,
    "state": "NT",
    "lat": -12.193006,
    "lon": 136.763961
  },
  {
    "name": "Farrar",
    "postcode": 830,
    "state": "NT",
    "lat": -12.480219,
    "lon": 130.997607
  },
  {
    "name": "Gray",
    "postcode": 830,
    "state": "NT",
    "lat": -12.384847,
    "lon": 130.872981
  },
  {
    "name": "Marlow lagoon",
    "postcode": 830,
    "state": "NT",
    "lat": -12.446554,
    "lon": 130.923435
  },
  {
    "name": "Moulden",
    "postcode": 830,
    "state": "NT",
    "lat": -12.511316,
    "lon": 130.974467
  },
  {
    "name": "Palmerston",
    "postcode": 830,
    "state": "NT",
    "lat": -12.480066,
    "lon": 130.984006
  },
  {
    "name": "Shoal bay",
    "postcode": 830,
    "state": "NT",
    "lat": -12.394902,
    "lon": 130.924268
  },
  {
    "name": "Woodroffe",
    "postcode": 830,
    "state": "NT",
    "lat": -12.504958,
    "lon": 130.981903
  },
  {
    "name": "Yarrawonga",
    "postcode": 830,
    "state": "NT",
    "lat": -12.471149,
    "lon": 130.984917
  },
  {
    "name": "Gunn",
    "postcode": 832,
    "state": "NT",
    "lat": -12.492269,
    "lon": 130.990891
  },
  {
    "name": "Mitchell",
    "postcode": 832,
    "state": "NT",
    "lat": -12.460386,
    "lon": 130.837001
  },
  {
    "name": "Rosebery",
    "postcode": 832,
    "state": "NT",
    "lat": -12.501969,
    "lon": 130.988349
  },
  {
    "name": "Rosebery heights",
    "postcode": 832,
    "state": "NT",
    "lat": -12.501969,
    "lon": 130.988349
  },
  {
    "name": "Howard springs",
    "postcode": 835,
    "state": "NT",
    "lat": -12.48138,
    "lon": 131.029173
  },
  {
    "name": "Virginia",
    "postcode": 835,
    "state": "NT",
    "lat": -12.545626,
    "lon": 131.029268
  },
  {
    "name": "Girraween",
    "postcode": 836,
    "state": "NT",
    "lat": -12.525546,
    "lon": 131.103025
  },
  {
    "name": "Herbert",
    "postcode": 836,
    "state": "NT",
    "lat": -14.462901,
    "lon": 132.280885
  },
  {
    "name": "Manton",
    "postcode": 837,
    "state": "NT",
    "lat": -12.460094,
    "lon": 130.842663
  },
  {
    "name": "Berry springs",
    "postcode": 838,
    "state": "NT",
    "lat": -12.709507,
    "lon": 130.995407
  },
  {
    "name": "Dundee beach",
    "postcode": 840,
    "state": "NT",
    "lat": -12.717562,
    "lon": 130.351316
  },
  {
    "name": "Dundee downs",
    "postcode": 840,
    "state": "NT",
    "lat": -12.771275,
    "lon": 130.527516
  },
  {
    "name": "Dundee forest",
    "postcode": 840,
    "state": "NT",
    "lat": -12.749956,
    "lon": 130.524993
  },
  {
    "name": "Darwin river",
    "postcode": 841,
    "state": "NT",
    "lat": -12.801028,
    "lon": 130.955789
  },
  {
    "name": "Batchelor",
    "postcode": 845,
    "state": "NT",
    "lat": -13.038663,
    "lon": 131.072091
  },
  {
    "name": "Adelaide river",
    "postcode": 846,
    "state": "NT",
    "lat": -13.226806,
    "lon": 131.098416
  },
  {
    "name": "Pine creek",
    "postcode": 847,
    "state": "NT",
    "lat": -13.824123,
    "lon": 131.835799
  },
  {
    "name": "Katherine",
    "postcode": 850,
    "state": "NT",
    "lat": -14.464497,
    "lon": 132.262021
  },
  {
    "name": "Beswick",
    "postcode": 852,
    "state": "NT",
    "lat": -14.92267,
    "lon": 133.064654
  },
  {
    "name": "Daly waters",
    "postcode": 852,
    "state": "NT",
    "lat": -16.252155,
    "lon": 133.367852
  },
  {
    "name": "Katherine",
    "postcode": 852,
    "state": "NT",
    "lat": -14.464497,
    "lon": 132.262021
  },
  {
    "name": "Lajamanu",
    "postcode": 852,
    "state": "NT",
    "lat": -19.141443,
    "lon": 130.051529
  },
  {
    "name": "Larrimah",
    "postcode": 852,
    "state": "NT",
    "lat": -15.62712,
    "lon": 132.944488
  },
  {
    "name": "Manbulloo",
    "postcode": 852,
    "state": "NT",
    "lat": -12.360929,
    "lon": 130.880316
  },
  {
    "name": "Numbulwar",
    "postcode": 852,
    "state": "NT",
    "lat": -14.65403,
    "lon": 134.78167
  },
  {
    "name": "Wave hill",
    "postcode": 852,
    "state": "NT",
    "lat": -17.450131,
    "lon": 130.103437
  },
  {
    "name": "Borroloola",
    "postcode": 854,
    "state": "NT",
    "lat": -16.81839,
    "lon": 137.14707
  },
  {
    "name": "Tennant creek",
    "postcode": 860,
    "state": "NT",
    "lat": -19.648306,
    "lon": 134.186642
  },
  {
    "name": "Avon downs",
    "postcode": 862,
    "state": "NT",
    "lat": -20.231104,
    "lon": 137.762232
  },
  {
    "name": "Cresswell downs",
    "postcode": 862,
    "state": "NT",
    "lat": -17.939922,
    "lon": 135.588193
  },
  {
    "name": "Elliott",
    "postcode": 862,
    "state": "NT",
    "lat": -23.684,
    "lon": 133.869007
  },
  {
    "name": "Helen springs",
    "postcode": 862,
    "state": "NT",
    "lat": -18.409609,
    "lon": 133.882689
  },
  {
    "name": "Muckaty station",
    "postcode": 862,
    "state": "NT",
    "lat": -18.629682,
    "lon": 133.906927
  },
  {
    "name": "Newcastle waters",
    "postcode": 862,
    "state": "NT",
    "lat": -17.54887,
    "lon": 133.538826
  },
  {
    "name": "Renner springs",
    "postcode": 862,
    "state": "NT",
    "lat": -23.695949,
    "lon": 133.889816
  },
  {
    "name": "Tennant creek",
    "postcode": 862,
    "state": "NT",
    "lat": -19.648306,
    "lon": 134.186642
  },
  {
    "name": "Warrego",
    "postcode": 862,
    "state": "NT",
    "lat": -19.512201,
    "lon": 134.068348
  },
  {
    "name": "Wollogorang station",
    "postcode": 862,
    "state": "NT",
    "lat": -17.142478,
    "lon": 137.591784
  },
  {
    "name": "Alice springs",
    "postcode": 870,
    "state": "NT",
    "lat": -12.436101,
    "lon": 130.84059
  },
  {
    "name": "Ali curung",
    "postcode": 872,
    "state": "NT",
    "lat": -20.998545,
    "lon": 134.3822
  },
  {
    "name": "Alice springs",
    "postcode": 872,
    "state": "NT",
    "lat": -12.436101,
    "lon": 130.84059
  },
  {
    "name": "Amata",
    "postcode": 872,
    "state": "NT",
    "lat": -25.962716,
    "lon": 131.606872
  },
  {
    "name": "Amoonguna",
    "postcode": 872,
    "state": "NT",
    "lat": -23.747506,
    "lon": 133.926632
  },
  {
    "name": "Areyonga",
    "postcode": 872,
    "state": "NT",
    "lat": -24.166937,
    "lon": 132.286759
  },
  {
    "name": "Erldunda",
    "postcode": 872,
    "state": "NT",
    "lat": -12.364467,
    "lon": 130.876251
  },
  {
    "name": "Finke",
    "postcode": 872,
    "state": "NT",
    "lat": -25.698005,
    "lon": 134.339708
  },
  {
    "name": "Gibson desert north",
    "postcode": 872,
    "state": "WA",
    "lat": -22.590927,
    "lon": 125.664556
  },
  {
    "name": "Haasts bluff",
    "postcode": 872,
    "state": "NT",
    "lat": -23.509293,
    "lon": 132.185203
  },
  {
    "name": "Kintore",
    "postcode": 872,
    "state": "NT",
    "lat": -12.486851,
    "lon": 130.991347
  },
  {
    "name": "Santa teresa",
    "postcode": 872,
    "state": "NT",
    "lat": -24.730598,
    "lon": 135.332238
  },
  {
    "name": "Ti tree",
    "postcode": 872,
    "state": "NT",
    "lat": -12.477758,
    "lon": 131.068332
  },
  {
    "name": "Uluru",
    "postcode": 872,
    "state": "NT",
    "lat": -12.486152,
    "lon": 130.992541
  },
  {
    "name": "Willowra",
    "postcode": 872,
    "state": "NT",
    "lat": -21.717344,
    "lon": 133.030085
  },
  {
    "name": "Yuelamu",
    "postcode": 872,
    "state": "NT",
    "lat": -22.391277,
    "lon": 132.11368
  },
  {
    "name": "Yuendumu",
    "postcode": 872,
    "state": "NT",
    "lat": -22.25909,
    "lon": 131.808398
  },
  {
    "name": "Yulara",
    "postcode": 872,
    "state": "NT",
    "lat": -25.242047,
    "lon": 130.98556
  },
  {
    "name": "Gove",
    "postcode": 880,
    "state": "NT",
    "lat": -12.378064,
    "lon": 130.871791
  },
  {
    "name": "Nhulunbuy",
    "postcode": 880,
    "state": "NT",
    "lat": -12.18421,
    "lon": 136.783889
  },
  {
    "name": "Jabiru",
    "postcode": 886,
    "state": "NT",
    "lat": -12.381028,
    "lon": 130.893097
  },
  {
    "name": "Dawes point",
    "postcode": 2000,
    "state": "NSW",
    "lat": -33.855601,
    "lon": 151.20822
  },
  {
    "name": "Haymarket",
    "postcode": 2000,
    "state": "NSW",
    "lat": -33.880777,
    "lon": 151.202796
  },
  {
    "name": "Millers point",
    "postcode": 2000,
    "state": "NSW",
    "lat": -33.858315,
    "lon": 151.203519
  },
  {
    "name": "Parliament house",
    "postcode": 2000,
    "state": "NSW",
    "lat": -33.867229,
    "lon": 151.213051
  },
  {
    "name": "Sydney",
    "postcode": 2000,
    "state": "NSW",
    "lat": -33.867139,
    "lon": 151.207114
  },
  {
    "name": "Sydney south",
    "postcode": 2000,
    "state": "NSW",
    "lat": -33.877718,
    "lon": 151.205723
  },
  {
    "name": "The rocks",
    "postcode": 2000,
    "state": "NSW",
    "lat": -33.859251,
    "lon": 151.208782
  },
  {
    "name": "The university of sydney",
    "postcode": 2006,
    "state": "NSW",
    "lat": -33.887926,
    "lon": 151.186923
  },
  {
    "name": "Broadway",
    "postcode": 2007,
    "state": "NSW",
    "lat": -33.884366,
    "lon": 151.196502
  },
  {
    "name": "Ultimo",
    "postcode": 2007,
    "state": "NSW",
    "lat": -33.878416,
    "lon": 151.197272
  },
  {
    "name": "Chippendale",
    "postcode": 2008,
    "state": "NSW",
    "lat": -33.886844,
    "lon": 151.201715
  },
  {
    "name": "Darlington",
    "postcode": 2008,
    "state": "NSW",
    "lat": -33.891348,
    "lon": 151.191243
  },
  {
    "name": "Pyrmont",
    "postcode": 2009,
    "state": "NSW",
    "lat": -33.869709,
    "lon": 151.19393
  },
  {
    "name": "Darlinghurst",
    "postcode": 2010,
    "state": "NSW",
    "lat": -33.879825,
    "lon": 151.21956
  },
  {
    "name": "Surry hills",
    "postcode": 2010,
    "state": "NSW",
    "lat": -33.888821,
    "lon": 151.213328
  },
  {
    "name": "Elizabeth bay",
    "postcode": 2011,
    "state": "NSW",
    "lat": -33.872829,
    "lon": 151.226593
  },
  {
    "name": "Hmas kuttabul",
    "postcode": 2011,
    "state": "NSW",
    "lat": -33.867206,
    "lon": 151.225205
  },
  {
    "name": "Potts point",
    "postcode": 2011,
    "state": "NSW",
    "lat": -33.869026,
    "lon": 151.225603
  },
  {
    "name": "Rushcutters bay",
    "postcode": 2011,
    "state": "NSW",
    "lat": -33.87624,
    "lon": 151.228614
  },
  {
    "name": "Woolloomooloo",
    "postcode": 2011,
    "state": "NSW",
    "lat": -33.869283,
    "lon": 151.220412
  },
  {
    "name": "Alexandria",
    "postcode": 2015,
    "state": "NSW",
    "lat": -33.897571,
    "lon": 151.195567
  },
  {
    "name": "Beaconsfield",
    "postcode": 2015,
    "state": "NSW",
    "lat": -33.911613,
    "lon": 151.20189
  },
  {
    "name": "Eveleigh",
    "postcode": 2015,
    "state": "NSW",
    "lat": -33.897075,
    "lon": 151.19113
  },
  {
    "name": "Redfern",
    "postcode": 2016,
    "state": "NSW",
    "lat": -33.892778,
    "lon": 151.203901
  },
  {
    "name": "Waterloo",
    "postcode": 2017,
    "state": "NSW",
    "lat": -33.9004,
    "lon": 151.206144
  },
  {
    "name": "Zetland",
    "postcode": 2017,
    "state": "NSW",
    "lat": -33.909938,
    "lon": 151.206234
  },
  {
    "name": "Eastlakes",
    "postcode": 2018,
    "state": "NSW",
    "lat": -33.925133,
    "lon": 151.213199
  },
  {
    "name": "Rosebery",
    "postcode": 2018,
    "state": "NSW",
    "lat": -33.920412,
    "lon": 151.203107
  },
  {
    "name": "Banksmeadow",
    "postcode": 2019,
    "state": "NSW",
    "lat": -33.95742,
    "lon": 151.206715
  },
  {
    "name": "Botany",
    "postcode": 2019,
    "state": "NSW",
    "lat": -33.94477,
    "lon": 151.196528
  },
  {
    "name": "Mascot",
    "postcode": 2020,
    "state": "NSW",
    "lat": -33.931189,
    "lon": 151.19431
  },
  {
    "name": "Sydney domestic airport",
    "postcode": 2020,
    "state": "NSW",
    "lat": -33.931479,
    "lon": 151.184989
  },
  {
    "name": "Sydney international airport",
    "postcode": 2020,
    "state": "NSW",
    "lat": -33.932035,
    "lon": 151.1687
  },
  {
    "name": "Moore park",
    "postcode": 2021,
    "state": "NSW",
    "lat": -33.893632,
    "lon": 151.219357
  },
  {
    "name": "Paddington",
    "postcode": 2021,
    "state": "NSW",
    "lat": -33.885032,
    "lon": 151.226475
  },
  {
    "name": "Bondi junction",
    "postcode": 2022,
    "state": "NSW",
    "lat": -33.892324,
    "lon": 151.24733
  },
  {
    "name": "Bondi junction plaza",
    "postcode": 2022,
    "state": "NSW",
    "lat": -33.891431,
    "lon": 151.250862
  },
  {
    "name": "Queens park",
    "postcode": 2022,
    "state": "NSW",
    "lat": -33.903188,
    "lon": 151.247205
  },
  {
    "name": "Bellevue hill",
    "postcode": 2023,
    "state": "NSW",
    "lat": -33.887189,
    "lon": 151.258935
  },
  {
    "name": "Bronte",
    "postcode": 2024,
    "state": "NSW",
    "lat": -33.902328,
    "lon": 151.263838
  },
  {
    "name": "Waverley",
    "postcode": 2024,
    "state": "NSW",
    "lat": -33.897955,
    "lon": 151.252059
  },
  {
    "name": "Woollahra",
    "postcode": 2025,
    "state": "NSW",
    "lat": -33.885795,
    "lon": 151.24413
  },
  {
    "name": "Bondi",
    "postcode": 2026,
    "state": "NSW",
    "lat": -33.893739,
    "lon": 151.262502
  },
  {
    "name": "Bondi beach",
    "postcode": 2026,
    "state": "NSW",
    "lat": -33.890542,
    "lon": 151.274856
  },
  {
    "name": "North bondi",
    "postcode": 2026,
    "state": "NSW",
    "lat": -33.8857,
    "lon": 151.279788
  },
  {
    "name": "Tamarama",
    "postcode": 2026,
    "state": "NSW",
    "lat": -33.897439,
    "lon": 151.271839
  },
  {
    "name": "Darling point",
    "postcode": 2027,
    "state": "NSW",
    "lat": -33.873808,
    "lon": 151.236683
  },
  {
    "name": "Edgecliff",
    "postcode": 2027,
    "state": "NSW",
    "lat": -33.878586,
    "lon": 151.235106
  },
  {
    "name": "Hmas rushcutters",
    "postcode": 2027,
    "state": "NSW",
    "lat": -33.872495,
    "lon": 151.235668
  },
  {
    "name": "Point piper",
    "postcode": 2027,
    "state": "NSW",
    "lat": -33.870083,
    "lon": 151.252329
  },
  {
    "name": "Double bay",
    "postcode": 2028,
    "state": "NSW",
    "lat": -33.87906,
    "lon": 151.243095
  },
  {
    "name": "Rose bay",
    "postcode": 2029,
    "state": "NSW",
    "lat": -33.866555,
    "lon": 151.280456
  },
  {
    "name": "Dover heights",
    "postcode": 2030,
    "state": "NSW",
    "lat": -33.874405,
    "lon": 151.280416
  },
  {
    "name": "Hmas watson",
    "postcode": 2030,
    "state": "NSW",
    "lat": -33.837706,
    "lon": 151.281602
  },
  {
    "name": "Rose bay north",
    "postcode": 2030,
    "state": "NSW",
    "lat": -33.866555,
    "lon": 151.280456
  },
  {
    "name": "Vaucluse",
    "postcode": 2030,
    "state": "NSW",
    "lat": -33.859047,
    "lon": 151.278434
  },
  {
    "name": "Watsons bay",
    "postcode": 2030,
    "state": "NSW",
    "lat": -33.844806,
    "lon": 151.282368
  },
  {
    "name": "Clovelly",
    "postcode": 2031,
    "state": "NSW",
    "lat": -33.912639,
    "lon": 151.262021
  },
  {
    "name": "Clovelly west",
    "postcode": 2031,
    "state": "NSW",
    "lat": -33.911604,
    "lon": 151.254892
  },
  {
    "name": "Randwick",
    "postcode": 2031,
    "state": "NSW",
    "lat": -33.913164,
    "lon": 151.241993
  },
  {
    "name": "St pauls",
    "postcode": 2031,
    "state": "NSW",
    "lat": -33.920227,
    "lon": 151.242689
  },
  {
    "name": "Daceyville",
    "postcode": 2032,
    "state": "NSW",
    "lat": -33.928043,
    "lon": 151.22513
  },
  {
    "name": "Kingsford",
    "postcode": 2032,
    "state": "NSW",
    "lat": -33.924922,
    "lon": 151.227811
  },
  {
    "name": "Kensington",
    "postcode": 2033,
    "state": "NSW",
    "lat": -33.912997,
    "lon": 151.219017
  },
  {
    "name": "Coogee",
    "postcode": 2034,
    "state": "NSW",
    "lat": -33.920491,
    "lon": 151.254401
  },
  {
    "name": "South coogee",
    "postcode": 2034,
    "state": "NSW",
    "lat": -33.931293,
    "lon": 151.256089
  },
  {
    "name": "Maroubra",
    "postcode": 2035,
    "state": "NSW",
    "lat": -33.946123,
    "lon": 151.242818
  },
  {
    "name": "Maroubra south",
    "postcode": 2035,
    "state": "NSW",
    "lat": -33.948856,
    "lon": 151.246592
  },
  {
    "name": "Pagewood",
    "postcode": 2035,
    "state": "NSW",
    "lat": -33.940108,
    "lon": 151.228411
  },
  {
    "name": "Chifley",
    "postcode": 2036,
    "state": "NSW",
    "lat": -33.976546,
    "lon": 151.240248
  },
  {
    "name": "Eastgardens",
    "postcode": 2036,
    "state": "NSW",
    "lat": -33.946043,
    "lon": 151.223301
  },
  {
    "name": "Hillsdale",
    "postcode": 2036,
    "state": "NSW",
    "lat": -33.952685,
    "lon": 151.231341
  },
  {
    "name": "La perouse",
    "postcode": 2036,
    "state": "NSW",
    "lat": -33.989634,
    "lon": 151.231507
  },
  {
    "name": "Little bay",
    "postcode": 2036,
    "state": "NSW",
    "lat": -33.981177,
    "lon": 151.243206
  },
  {
    "name": "Malabar",
    "postcode": 2036,
    "state": "NSW",
    "lat": -33.965376,
    "lon": 151.245969
  },
  {
    "name": "Matraville",
    "postcode": 2036,
    "state": "NSW",
    "lat": -33.957549,
    "lon": 151.230846
  },
  {
    "name": "Phillip bay",
    "postcode": 2036,
    "state": "NSW",
    "lat": -33.980556,
    "lon": 151.236692
  },
  {
    "name": "Port botany",
    "postcode": 2036,
    "state": "NSW",
    "lat": -33.966245,
    "lon": 151.225013
  },
  {
    "name": "Forest lodge",
    "postcode": 2037,
    "state": "NSW",
    "lat": -33.881215,
    "lon": 151.181127
  },
  {
    "name": "Glebe",
    "postcode": 2037,
    "state": "NSW",
    "lat": -33.880815,
    "lon": 151.187791
  },
  {
    "name": "Annandale",
    "postcode": 2038,
    "state": "NSW",
    "lat": -33.881435,
    "lon": 151.170681
  },
  {
    "name": "Rozelle",
    "postcode": 2039,
    "state": "NSW",
    "lat": -33.863063,
    "lon": 151.170573
  },
  {
    "name": "Leichhardt",
    "postcode": 2040,
    "state": "NSW",
    "lat": -33.883793,
    "lon": 151.157057
  },
  {
    "name": "Lilyfield",
    "postcode": 2040,
    "state": "NSW",
    "lat": -33.872991,
    "lon": 151.165788
  },
  {
    "name": "Balmain",
    "postcode": 2041,
    "state": "NSW",
    "lat": -33.856498,
    "lon": 151.178009
  },
  {
    "name": "Balmain east",
    "postcode": 2041,
    "state": "NSW",
    "lat": -33.857833,
    "lon": 151.190598
  },
  {
    "name": "Birchgrove",
    "postcode": 2041,
    "state": "NSW",
    "lat": -33.853386,
    "lon": 151.180609
  },
  {
    "name": "Enmore",
    "postcode": 2042,
    "state": "NSW",
    "lat": -33.899362,
    "lon": 151.171098
  },
  {
    "name": "Newtown",
    "postcode": 2042,
    "state": "NSW",
    "lat": -33.896449,
    "lon": 151.180013
  },
  {
    "name": "Erskineville",
    "postcode": 2043,
    "state": "NSW",
    "lat": -33.902234,
    "lon": 151.186192
  },
  {
    "name": "St peters",
    "postcode": 2044,
    "state": "NSW",
    "lat": -33.911062,
    "lon": 151.180126
  },
  {
    "name": "Sydenham",
    "postcode": 2044,
    "state": "NSW",
    "lat": -33.915222,
    "lon": 151.166104
  },
  {
    "name": "Tempe",
    "postcode": 2044,
    "state": "NSW",
    "lat": -33.924777,
    "lon": 151.160747
  },
  {
    "name": "Haberfield",
    "postcode": 2045,
    "state": "NSW",
    "lat": -33.880496,
    "lon": 151.138839
  },
  {
    "name": "Abbotsford",
    "postcode": 2046,
    "state": "NSW",
    "lat": -33.852469,
    "lon": 151.129453
  },
  {
    "name": "Canada bay",
    "postcode": 2046,
    "state": "NSW",
    "lat": -33.863194,
    "lon": 151.116398
  },
  {
    "name": "Chiswick",
    "postcode": 2046,
    "state": "NSW",
    "lat": -33.851437,
    "lon": 151.135954
  },
  {
    "name": "Five dock",
    "postcode": 2046,
    "state": "NSW",
    "lat": -33.866368,
    "lon": 151.130136
  },
  {
    "name": "Rodd point",
    "postcode": 2046,
    "state": "NSW",
    "lat": -33.868208,
    "lon": 151.141652
  },
  {
    "name": "Russell lea",
    "postcode": 2046,
    "state": "NSW",
    "lat": -33.86072,
    "lon": 151.140711
  },
  {
    "name": "Wareemba",
    "postcode": 2046,
    "state": "NSW",
    "lat": -33.856828,
    "lon": 151.130728
  },
  {
    "name": "Drummoyne",
    "postcode": 2047,
    "state": "NSW",
    "lat": -33.851056,
    "lon": 151.154542
  },
  {
    "name": "Stanmore",
    "postcode": 2048,
    "state": "NSW",
    "lat": -33.897351,
    "lon": 151.16535
  },
  {
    "name": "Lewisham",
    "postcode": 2049,
    "state": "NSW",
    "lat": -33.894902,
    "lon": 151.144413
  },
  {
    "name": "Petersham",
    "postcode": 2049,
    "state": "NSW",
    "lat": -33.896242,
    "lon": 151.154136
  },
  {
    "name": "Petersham north",
    "postcode": 2049,
    "state": "NSW",
    "lat": -33.889283,
    "lon": 151.158575
  },
  {
    "name": "Camperdown",
    "postcode": 2050,
    "state": "NSW",
    "lat": -33.88866,
    "lon": 151.177188
  },
  {
    "name": "Missenden road",
    "postcode": 2050,
    "state": "NSW",
    "lat": -33.888668,
    "lon": 151.181531
  },
  {
    "name": "North sydney",
    "postcode": 2055,
    "state": "NSW",
    "lat": -33.802837,
    "lon": 151.104935
  },
  {
    "name": "Hmas waterhen",
    "postcode": 2060,
    "state": "NSW",
    "lat": -33.840633,
    "lon": 151.19497
  },
  {
    "name": "Lavender bay",
    "postcode": 2060,
    "state": "NSW",
    "lat": -33.84307,
    "lon": 151.208015
  },
  {
    "name": "Mcmahons point",
    "postcode": 2060,
    "state": "NSW",
    "lat": -33.84464,
    "lon": 151.20425
  },
  {
    "name": "North sydney",
    "postcode": 2060,
    "state": "NSW",
    "lat": -33.838265,
    "lon": 151.206481
  },
  {
    "name": "North sydney shoppingworld",
    "postcode": 2060,
    "state": "NSW",
    "lat": -33.837788,
    "lon": 151.208276
  },
  {
    "name": "Waverton",
    "postcode": 2060,
    "state": "NSW",
    "lat": -33.839969,
    "lon": 151.195808
  },
  {
    "name": "Kirribilli",
    "postcode": 2061,
    "state": "NSW",
    "lat": -33.846275,
    "lon": 151.212705
  },
  {
    "name": "Milsons point",
    "postcode": 2061,
    "state": "NSW",
    "lat": -33.847526,
    "lon": 151.211568
  },
  {
    "name": "Cammeray",
    "postcode": 2062,
    "state": "NSW",
    "lat": -33.821953,
    "lon": 151.21043
  },
  {
    "name": "Northbridge",
    "postcode": 2063,
    "state": "NSW",
    "lat": -33.815028,
    "lon": 151.222266
  },
  {
    "name": "Artarmon",
    "postcode": 2064,
    "state": "NSW",
    "lat": -33.807664,
    "lon": 151.189662
  },
  {
    "name": "Crows nest",
    "postcode": 2065,
    "state": "NSW",
    "lat": -33.82609,
    "lon": 151.199192
  },
  {
    "name": "Greenwich",
    "postcode": 2065,
    "state": "NSW",
    "lat": -33.831958,
    "lon": 151.186129
  },
  {
    "name": "Naremburn",
    "postcode": 2065,
    "state": "NSW",
    "lat": -33.817299,
    "lon": 151.20116
  },
  {
    "name": "Royal north shore hospital",
    "postcode": 2065,
    "state": "NSW",
    "lat": -33.821588,
    "lon": 151.191396
  },
  {
    "name": "St leonards",
    "postcode": 2065,
    "state": "NSW",
    "lat": -33.823248,
    "lon": 151.195504
  },
  {
    "name": "Wollstonecraft",
    "postcode": 2065,
    "state": "NSW",
    "lat": -33.828158,
    "lon": 151.196621
  },
  {
    "name": "Lane cove",
    "postcode": 2066,
    "state": "NSW",
    "lat": -33.814599,
    "lon": 151.168722
  },
  {
    "name": "Lane cove north",
    "postcode": 2066,
    "state": "NSW",
    "lat": -33.807556,
    "lon": 151.170912
  },
  {
    "name": "Lane cove west",
    "postcode": 2066,
    "state": "NSW",
    "lat": -33.806246,
    "lon": 151.153281
  },
  {
    "name": "Linley point",
    "postcode": 2066,
    "state": "NSW",
    "lat": -33.826777,
    "lon": 151.148251
  },
  {
    "name": "Longueville",
    "postcode": 2066,
    "state": "NSW",
    "lat": -33.833096,
    "lon": 151.165342
  },
  {
    "name": "Northwood",
    "postcode": 2066,
    "state": "NSW",
    "lat": -33.829732,
    "lon": 151.177751
  },
  {
    "name": "Riverview",
    "postcode": 2066,
    "state": "NSW",
    "lat": -33.825587,
    "lon": 151.159934
  },
  {
    "name": "Chatswood",
    "postcode": 2067,
    "state": "NSW",
    "lat": -33.795617,
    "lon": 151.185329
  },
  {
    "name": "Chatswood west",
    "postcode": 2067,
    "state": "NSW",
    "lat": -33.796332,
    "lon": 151.167142
  },
  {
    "name": "Castlecrag",
    "postcode": 2068,
    "state": "NSW",
    "lat": -33.802403,
    "lon": 151.212643
  },
  {
    "name": "Middle cove",
    "postcode": 2068,
    "state": "NSW",
    "lat": -33.794087,
    "lon": 151.207975
  },
  {
    "name": "North willoughby",
    "postcode": 2068,
    "state": "NSW",
    "lat": -33.793089,
    "lon": 151.195787
  },
  {
    "name": "Willoughby",
    "postcode": 2068,
    "state": "NSW",
    "lat": -33.801483,
    "lon": 151.1986
  },
  {
    "name": "Willoughby east",
    "postcode": 2068,
    "state": "NSW",
    "lat": -33.802534,
    "lon": 151.203505
  },
  {
    "name": "Willoughby north",
    "postcode": 2068,
    "state": "NSW",
    "lat": -33.793089,
    "lon": 151.195787
  },
  {
    "name": "Castle cove",
    "postcode": 2069,
    "state": "NSW",
    "lat": -33.784165,
    "lon": 151.199948
  },
  {
    "name": "Roseville",
    "postcode": 2069,
    "state": "NSW",
    "lat": -33.784635,
    "lon": 151.177111
  },
  {
    "name": "Roseville chase",
    "postcode": 2069,
    "state": "NSW",
    "lat": -33.778902,
    "lon": 151.195195
  },
  {
    "name": "East lindfield",
    "postcode": 2070,
    "state": "NSW",
    "lat": -33.766415,
    "lon": 151.186095
  },
  {
    "name": "Lindfield",
    "postcode": 2070,
    "state": "NSW",
    "lat": -33.776441,
    "lon": 151.168736
  },
  {
    "name": "Lindfield west",
    "postcode": 2070,
    "state": "NSW",
    "lat": -33.784382,
    "lon": 151.158141
  },
  {
    "name": "East killara",
    "postcode": 2071,
    "state": "NSW",
    "lat": -33.753498,
    "lon": 151.170003
  },
  {
    "name": "Killara",
    "postcode": 2071,
    "state": "NSW",
    "lat": -33.766376,
    "lon": 151.162047
  },
  {
    "name": "Gordon",
    "postcode": 2072,
    "state": "NSW",
    "lat": -33.757349,
    "lon": 151.155678
  },
  {
    "name": "Pymble",
    "postcode": 2073,
    "state": "NSW",
    "lat": -33.74414,
    "lon": 151.141103
  },
  {
    "name": "West pymble",
    "postcode": 2073,
    "state": "NSW",
    "lat": -33.760383,
    "lon": 151.126038
  },
  {
    "name": "North turramurra",
    "postcode": 2074,
    "state": "NSW",
    "lat": -33.713419,
    "lon": 151.147146
  },
  {
    "name": "South turramurra",
    "postcode": 2074,
    "state": "NSW",
    "lat": -33.746027,
    "lon": 151.113441
  },
  {
    "name": "Turramurra",
    "postcode": 2074,
    "state": "NSW",
    "lat": -33.733244,
    "lon": 151.129809
  },
  {
    "name": "Warrawee",
    "postcode": 2074,
    "state": "NSW",
    "lat": -33.722839,
    "lon": 151.126134
  },
  {
    "name": "St ives",
    "postcode": 2075,
    "state": "NSW",
    "lat": -33.730601,
    "lon": 151.158551
  },
  {
    "name": "St ives chase",
    "postcode": 2075,
    "state": "NSW",
    "lat": -33.707895,
    "lon": 151.163446
  },
  {
    "name": "Normanhurst",
    "postcode": 2076,
    "state": "NSW",
    "lat": -33.720999,
    "lon": 151.097331
  },
  {
    "name": "North wahroonga",
    "postcode": 2076,
    "state": "NSW",
    "lat": -33.702704,
    "lon": 151.123179
  },
  {
    "name": "Wahroonga",
    "postcode": 2076,
    "state": "NSW",
    "lat": -33.716405,
    "lon": 151.118119
  },
  {
    "name": "Asquith",
    "postcode": 2077,
    "state": "NSW",
    "lat": -33.687484,
    "lon": 151.108685
  },
  {
    "name": "Hornsby",
    "postcode": 2077,
    "state": "NSW",
    "lat": -33.704748,
    "lon": 151.098696
  },
  {
    "name": "Hornsby heights",
    "postcode": 2077,
    "state": "NSW",
    "lat": -33.670086,
    "lon": 151.095503
  },
  {
    "name": "Waitara",
    "postcode": 2077,
    "state": "NSW",
    "lat": -33.709541,
    "lon": 151.104136
  },
  {
    "name": "Mount colah",
    "postcode": 2079,
    "state": "NSW",
    "lat": -33.664817,
    "lon": 151.117161
  },
  {
    "name": "Mount kuring-gai",
    "postcode": 2080,
    "state": "NSW",
    "lat": -33.628729,
    "lon": 151.226792
  },
  {
    "name": "Berowra",
    "postcode": 2081,
    "state": "NSW",
    "lat": -33.623581,
    "lon": 151.150117
  },
  {
    "name": "Cowan",
    "postcode": 2081,
    "state": "NSW",
    "lat": -33.589491,
    "lon": 151.171015
  },
  {
    "name": "Berowra heights",
    "postcode": 2082,
    "state": "NSW",
    "lat": -33.610968,
    "lon": 151.136829
  },
  {
    "name": "Berowra waters",
    "postcode": 2082,
    "state": "NSW",
    "lat": -33.601653,
    "lon": 151.11837
  },
  {
    "name": "Bar point",
    "postcode": 2083,
    "state": "NSW",
    "lat": -33.507463,
    "lon": 151.163329
  },
  {
    "name": "Brooklyn",
    "postcode": 2083,
    "state": "NSW",
    "lat": -33.548006,
    "lon": 151.22519
  },
  {
    "name": "Cheero point",
    "postcode": 2083,
    "state": "NSW",
    "lat": -33.514637,
    "lon": 151.195142
  },
  {
    "name": "Cogra bay",
    "postcode": 2083,
    "state": "NSW",
    "lat": -33.519596,
    "lon": 151.223002
  },
  {
    "name": "Dangar island",
    "postcode": 2083,
    "state": "NSW",
    "lat": -33.539357,
    "lon": 151.241762
  },
  {
    "name": "Milsons passage",
    "postcode": 2083,
    "state": "NSW",
    "lat": -33.518967,
    "lon": 151.176541
  },
  {
    "name": "Mooney mooney",
    "postcode": 2083,
    "state": "NSW",
    "lat": -33.490356,
    "lon": 151.186179
  },
  {
    "name": "Cottage point",
    "postcode": 2084,
    "state": "NSW",
    "lat": -33.619578,
    "lon": 151.203831
  },
  {
    "name": "Duffys forest",
    "postcode": 2084,
    "state": "NSW",
    "lat": -33.676775,
    "lon": 151.199879
  },
  {
    "name": "Terrey hills",
    "postcode": 2084,
    "state": "NSW",
    "lat": -33.683644,
    "lon": 151.22847
  },
  {
    "name": "Belrose",
    "postcode": 2085,
    "state": "NSW",
    "lat": -33.739288,
    "lon": 151.211439
  },
  {
    "name": "Belrose west",
    "postcode": 2085,
    "state": "NSW",
    "lat": -33.761674,
    "lon": 151.278773
  },
  {
    "name": "Davidson",
    "postcode": 2085,
    "state": "NSW",
    "lat": -33.738731,
    "lon": 151.194197
  },
  {
    "name": "Frenchs forest",
    "postcode": 2086,
    "state": "NSW",
    "lat": -33.750964,
    "lon": 151.226036
  },
  {
    "name": "Frenchs forest east",
    "postcode": 2086,
    "state": "NSW",
    "lat": -33.751488,
    "lon": 151.245461
  },
  {
    "name": "Forestville",
    "postcode": 2087,
    "state": "NSW",
    "lat": -33.762011,
    "lon": 151.21406
  },
  {
    "name": "Killarney heights",
    "postcode": 2087,
    "state": "NSW",
    "lat": -33.773728,
    "lon": 151.216125
  },
  {
    "name": "Mosman",
    "postcode": 2088,
    "state": "NSW",
    "lat": -33.829077,
    "lon": 151.24409
  },
  {
    "name": "Spit junction",
    "postcode": 2088,
    "state": "NSW",
    "lat": -33.822964,
    "lon": 151.242292
  },
  {
    "name": "Neutral bay",
    "postcode": 2089,
    "state": "NSW",
    "lat": -33.83112,
    "lon": 151.221232
  },
  {
    "name": "Neutral bay junction",
    "postcode": 2089,
    "state": "NSW",
    "lat": -33.831529,
    "lon": 151.222401
  },
  {
    "name": "Cremorne",
    "postcode": 2090,
    "state": "NSW",
    "lat": -33.828131,
    "lon": 151.230233
  },
  {
    "name": "Cremorne junction",
    "postcode": 2090,
    "state": "NSW",
    "lat": -33.843075,
    "lon": 151.228923
  },
  {
    "name": "Cremorne point",
    "postcode": 2090,
    "state": "NSW",
    "lat": -33.84447,
    "lon": 151.228231
  },
  {
    "name": "Seaforth",
    "postcode": 2092,
    "state": "NSW",
    "lat": -33.797106,
    "lon": 151.251146
  },
  {
    "name": "Balgowlah",
    "postcode": 2093,
    "state": "NSW",
    "lat": -33.794121,
    "lon": 151.26268
  },
  {
    "name": "Balgowlah heights",
    "postcode": 2093,
    "state": "NSW",
    "lat": -33.800553,
    "lon": 151.257401
  },
  {
    "name": "Clontarf",
    "postcode": 2093,
    "state": "NSW",
    "lat": -33.808238,
    "lon": 151.255095
  },
  {
    "name": "Manly vale",
    "postcode": 2093,
    "state": "NSW",
    "lat": -33.784036,
    "lon": 151.267315
  },
  {
    "name": "North balgowlah",
    "postcode": 2093,
    "state": "NSW",
    "lat": -33.787074,
    "lon": 151.251721
  },
  {
    "name": "Fairlight",
    "postcode": 2094,
    "state": "NSW",
    "lat": -33.794163,
    "lon": 151.273978
  },
  {
    "name": "Manly",
    "postcode": 2095,
    "state": "NSW",
    "lat": -33.797144,
    "lon": 151.28804
  },
  {
    "name": "Manly east",
    "postcode": 2095,
    "state": "NSW",
    "lat": -33.801822,
    "lon": 151.288876
  },
  {
    "name": "Curl curl",
    "postcode": 2096,
    "state": "NSW",
    "lat": -33.768937,
    "lon": 151.294035
  },
  {
    "name": "Harbord",
    "postcode": 2096,
    "state": "NSW",
    "lat": -33.778663,
    "lon": 151.285772
  },
  {
    "name": "Queenscliff",
    "postcode": 2096,
    "state": "NSW",
    "lat": -33.784595,
    "lon": 151.287817
  },
  {
    "name": "Collaroy",
    "postcode": 2097,
    "state": "NSW",
    "lat": -33.740969,
    "lon": 151.303133
  },
  {
    "name": "Collaroy beach",
    "postcode": 2097,
    "state": "NSW",
    "lat": -33.732122,
    "lon": 151.301232
  },
  {
    "name": "Collaroy plateau west",
    "postcode": 2097,
    "state": "NSW",
    "lat": -33.728047,
    "lon": 151.286514
  },
  {
    "name": "Wheeler heights",
    "postcode": 2097,
    "state": "NSW",
    "lat": -33.732476,
    "lon": 151.277439
  },
  {
    "name": "Cromer",
    "postcode": 2099,
    "state": "NSW",
    "lat": -33.740353,
    "lon": 151.278523
  },
  {
    "name": "Dee why",
    "postcode": 2099,
    "state": "NSW",
    "lat": -33.753451,
    "lon": 151.28554
  },
  {
    "name": "Narraweena",
    "postcode": 2099,
    "state": "NSW",
    "lat": -33.749912,
    "lon": 151.274687
  },
  {
    "name": "North curl curl",
    "postcode": 2099,
    "state": "NSW",
    "lat": -33.761652,
    "lon": 151.295691
  },
  {
    "name": "Allambie heights",
    "postcode": 2100,
    "state": "NSW",
    "lat": -33.765076,
    "lon": 151.248864
  },
  {
    "name": "Beacon hill",
    "postcode": 2100,
    "state": "NSW",
    "lat": -33.752406,
    "lon": 151.261272
  },
  {
    "name": "Brookvale",
    "postcode": 2100,
    "state": "NSW",
    "lat": -33.766629,
    "lon": 151.273824
  },
  {
    "name": "North manly",
    "postcode": 2100,
    "state": "NSW",
    "lat": -33.775702,
    "lon": 151.269339
  },
  {
    "name": "Oxford falls",
    "postcode": 2100,
    "state": "NSW",
    "lat": -33.730197,
    "lon": 151.248218
  },
  {
    "name": "Warringah mall",
    "postcode": 2100,
    "state": "NSW",
    "lat": -33.767737,
    "lon": 151.266062
  },
  {
    "name": "Elanora heights",
    "postcode": 2101,
    "state": "NSW",
    "lat": -33.695015,
    "lon": 151.280156
  },
  {
    "name": "Ingleside",
    "postcode": 2101,
    "state": "NSW",
    "lat": -33.683176,
    "lon": 151.262322
  },
  {
    "name": "Narrabeen",
    "postcode": 2101,
    "state": "NSW",
    "lat": -33.723127,
    "lon": 151.287366
  },
  {
    "name": "North narrabeen",
    "postcode": 2101,
    "state": "NSW",
    "lat": -33.702661,
    "lon": 151.293622
  },
  {
    "name": "Warriewood",
    "postcode": 2102,
    "state": "NSW",
    "lat": -33.686265,
    "lon": 151.29908
  },
  {
    "name": "Mona vale",
    "postcode": 2103,
    "state": "NSW",
    "lat": -33.67707,
    "lon": 151.300316
  },
  {
    "name": "Bayview",
    "postcode": 2104,
    "state": "NSW",
    "lat": -33.66445,
    "lon": 151.298945
  },
  {
    "name": "Church point",
    "postcode": 2105,
    "state": "NSW",
    "lat": -33.644873,
    "lon": 151.284352
  },
  {
    "name": "Elvina bay",
    "postcode": 2105,
    "state": "NSW",
    "lat": -33.642011,
    "lon": 151.276109
  },
  {
    "name": "Lovett bay",
    "postcode": 2105,
    "state": "NSW",
    "lat": -33.637405,
    "lon": 151.278429
  },
  {
    "name": "Scotland island",
    "postcode": 2105,
    "state": "NSW",
    "lat": -33.641752,
    "lon": 151.290116
  },
  {
    "name": "Newport",
    "postcode": 2106,
    "state": "NSW",
    "lat": -33.659896,
    "lon": 151.309312
  },
  {
    "name": "Newport beach",
    "postcode": 2106,
    "state": "NSW",
    "lat": -33.652485,
    "lon": 151.322776
  },
  {
    "name": "Avalon beach",
    "postcode": 2107,
    "state": "NSW",
    "lat": -33.636325,
    "lon": 151.330596
  },
  {
    "name": "Bilgola",
    "postcode": 2107,
    "state": "NSW",
    "lat": -33.645562,
    "lon": 151.323857
  },
  {
    "name": "Careel bay",
    "postcode": 2107,
    "state": "NSW",
    "lat": -33.623135,
    "lon": 151.327046
  },
  {
    "name": "Clareville",
    "postcode": 2107,
    "state": "NSW",
    "lat": -33.634905,
    "lon": 151.313321
  },
  {
    "name": "Paradise beach",
    "postcode": 2107,
    "state": "NSW",
    "lat": -33.624257,
    "lon": 151.31871
  },
  {
    "name": "Taylors point",
    "postcode": 2107,
    "state": "NSW",
    "lat": -33.637041,
    "lon": 151.305538
  },
  {
    "name": "Whale beach",
    "postcode": 2107,
    "state": "NSW",
    "lat": -33.614274,
    "lon": 151.330438
  },
  {
    "name": "Coasters retreat",
    "postcode": 2108,
    "state": "NSW",
    "lat": -33.6048,
    "lon": 151.29883
  },
  {
    "name": "Currawong beach",
    "postcode": 2108,
    "state": "NSW",
    "lat": -33.597338,
    "lon": 151.298367
  },
  {
    "name": "Great mackerel beach",
    "postcode": 2108,
    "state": "NSW",
    "lat": -33.591729,
    "lon": 151.300451
  },
  {
    "name": "Morning bay",
    "postcode": 2108,
    "state": "NSW",
    "lat": -33.623044,
    "lon": 151.281623
  },
  {
    "name": "Palm beach",
    "postcode": 2108,
    "state": "NSW",
    "lat": -33.604282,
    "lon": 151.321419
  },
  {
    "name": "The basin",
    "postcode": 2108,
    "state": "NSW",
    "lat": -33.602384,
    "lon": 151.293682
  },
  {
    "name": "Hunters hill",
    "postcode": 2110,
    "state": "NSW",
    "lat": -33.83484,
    "lon": 151.154196
  },
  {
    "name": "Woolwich",
    "postcode": 2110,
    "state": "NSW",
    "lat": -33.838393,
    "lon": 151.172535
  },
  {
    "name": "Boronia park",
    "postcode": 2111,
    "state": "NSW",
    "lat": -33.820941,
    "lon": 151.140067
  },
  {
    "name": "Gladesville",
    "postcode": 2111,
    "state": "NSW",
    "lat": -33.832894,
    "lon": 151.126964
  },
  {
    "name": "Henley",
    "postcode": 2111,
    "state": "NSW",
    "lat": -33.842216,
    "lon": 151.135943
  },
  {
    "name": "Huntleys cove",
    "postcode": 2111,
    "state": "NSW",
    "lat": -33.839798,
    "lon": 151.144587
  },
  {
    "name": "Huntleys point",
    "postcode": 2111,
    "state": "NSW",
    "lat": -33.840088,
    "lon": 151.145968
  },
  {
    "name": "Monash park",
    "postcode": 2111,
    "state": "NSW",
    "lat": -33.82248,
    "lon": 151.125215
  },
  {
    "name": "Tennyson point",
    "postcode": 2111,
    "state": "NSW",
    "lat": -33.831448,
    "lon": 151.117286
  },
  {
    "name": "Denistone east",
    "postcode": 2112,
    "state": "NSW",
    "lat": -33.797177,
    "lon": 151.097546
  },
  {
    "name": "Putney",
    "postcode": 2112,
    "state": "NSW",
    "lat": -33.824735,
    "lon": 151.112549
  },
  {
    "name": "Ryde",
    "postcode": 2112,
    "state": "NSW",
    "lat": -33.812953,
    "lon": 151.104942
  },
  {
    "name": "Blenheim road",
    "postcode": 2113,
    "state": "NSW",
    "lat": -33.798595,
    "lon": 151.133903
  },
  {
    "name": "East ryde",
    "postcode": 2113,
    "state": "NSW",
    "lat": -33.813769,
    "lon": 151.140289
  },
  {
    "name": "Macquarie centre",
    "postcode": 2113,
    "state": "NSW",
    "lat": -33.777139,
    "lon": 151.120702
  },
  {
    "name": "Macquarie park",
    "postcode": 2113,
    "state": "NSW",
    "lat": -33.779795,
    "lon": 151.134041
  },
  {
    "name": "North ryde",
    "postcode": 2113,
    "state": "NSW",
    "lat": -33.79677,
    "lon": 151.124355
  },
  {
    "name": "Denistone",
    "postcode": 2114,
    "state": "NSW",
    "lat": -33.799441,
    "lon": 151.07959
  },
  {
    "name": "Denistone west",
    "postcode": 2114,
    "state": "NSW",
    "lat": -33.802382,
    "lon": 151.066085
  },
  {
    "name": "Meadowbank",
    "postcode": 2114,
    "state": "NSW",
    "lat": -33.815912,
    "lon": 151.090715
  },
  {
    "name": "Melrose park",
    "postcode": 2114,
    "state": "NSW",
    "lat": -33.816575,
    "lon": 151.076089
  },
  {
    "name": "West ryde",
    "postcode": 2114,
    "state": "NSW",
    "lat": -33.807712,
    "lon": 151.088724
  },
  {
    "name": "Ermington",
    "postcode": 2115,
    "state": "NSW",
    "lat": -33.814144,
    "lon": 151.054495
  },
  {
    "name": "Rydalmere",
    "postcode": 2116,
    "state": "NSW",
    "lat": -33.811244,
    "lon": 151.034464
  },
  {
    "name": "Dundas",
    "postcode": 2117,
    "state": "NSW",
    "lat": -33.799405,
    "lon": 151.044189
  },
  {
    "name": "Dundas valley",
    "postcode": 2117,
    "state": "NSW",
    "lat": -33.78724,
    "lon": 151.061185
  },
  {
    "name": "Oatlands",
    "postcode": 2117,
    "state": "NSW",
    "lat": -33.796298,
    "lon": 151.026314
  },
  {
    "name": "Telopea",
    "postcode": 2117,
    "state": "NSW",
    "lat": -33.795986,
    "lon": 151.045106
  },
  {
    "name": "Carlingford",
    "postcode": 2118,
    "state": "NSW",
    "lat": -33.782959,
    "lon": 151.047707
  },
  {
    "name": "Carlingford court",
    "postcode": 2118,
    "state": "NSW",
    "lat": -33.776166,
    "lon": 151.0524
  },
  {
    "name": "Carlingford north",
    "postcode": 2118,
    "state": "NSW",
    "lat": -33.763237,
    "lon": 151.047719
  },
  {
    "name": "Kingsdene",
    "postcode": 2118,
    "state": "NSW",
    "lat": -33.784272,
    "lon": 151.02806
  },
  {
    "name": "Beecroft",
    "postcode": 2119,
    "state": "NSW",
    "lat": -33.749498,
    "lon": 151.064533
  },
  {
    "name": "Cheltenham",
    "postcode": 2119,
    "state": "NSW",
    "lat": -33.76169,
    "lon": 151.079364
  },
  {
    "name": "Pennant hills",
    "postcode": 2120,
    "state": "NSW",
    "lat": -33.738681,
    "lon": 151.071433
  },
  {
    "name": "Thornleigh",
    "postcode": 2120,
    "state": "NSW",
    "lat": -33.730816,
    "lon": 151.081226
  },
  {
    "name": "Westleigh",
    "postcode": 2120,
    "state": "NSW",
    "lat": -33.711956,
    "lon": 151.072836
  },
  {
    "name": "Epping",
    "postcode": 2121,
    "state": "NSW",
    "lat": -33.772549,
    "lon": 151.082365
  },
  {
    "name": "North epping",
    "postcode": 2121,
    "state": "NSW",
    "lat": -33.759777,
    "lon": 151.087742
  },
  {
    "name": "Eastwood",
    "postcode": 2122,
    "state": "NSW",
    "lat": -33.789986,
    "lon": 151.080914
  },
  {
    "name": "Marsfield",
    "postcode": 2122,
    "state": "NSW",
    "lat": -33.783971,
    "lon": 151.094241
  },
  {
    "name": "West pennant hills",
    "postcode": 2125,
    "state": "NSW",
    "lat": -33.753676,
    "lon": 151.039113
  },
  {
    "name": "Cherrybrook",
    "postcode": 2126,
    "state": "NSW",
    "lat": -33.722019,
    "lon": 151.041806
  },
  {
    "name": "Homebush bay",
    "postcode": 2127,
    "state": "NSW",
    "lat": -33.85283,
    "lon": 151.076186
  },
  {
    "name": "Newington",
    "postcode": 2127,
    "state": "NSW",
    "lat": -33.839276,
    "lon": 151.054828
  },
  {
    "name": "Silverwater",
    "postcode": 2128,
    "state": "NSW",
    "lat": -33.835928,
    "lon": 151.047591
  },
  {
    "name": "Summer hill",
    "postcode": 2130,
    "state": "NSW",
    "lat": -33.891712,
    "lon": 151.137258
  },
  {
    "name": "Ashfield",
    "postcode": 2131,
    "state": "NSW",
    "lat": -33.889498,
    "lon": 151.127444
  },
  {
    "name": "Croydon",
    "postcode": 2132,
    "state": "NSW",
    "lat": -33.883163,
    "lon": 151.114771
  },
  {
    "name": "Croydon park",
    "postcode": 2133,
    "state": "NSW",
    "lat": -33.895299,
    "lon": 151.108581
  },
  {
    "name": "Enfield south",
    "postcode": 2133,
    "state": "NSW",
    "lat": -33.895575,
    "lon": 151.093456
  },
  {
    "name": "Burwood",
    "postcode": 2134,
    "state": "NSW",
    "lat": -33.877423,
    "lon": 151.103682
  },
  {
    "name": "Burwood north",
    "postcode": 2134,
    "state": "NSW",
    "lat": -33.876154,
    "lon": 151.103933
  },
  {
    "name": "Strathfield",
    "postcode": 2135,
    "state": "NSW",
    "lat": -33.873913,
    "lon": 151.093993
  },
  {
    "name": "Burwood heights",
    "postcode": 2136,
    "state": "NSW",
    "lat": -33.888328,
    "lon": 151.103412
  },
  {
    "name": "Enfield",
    "postcode": 2136,
    "state": "NSW",
    "lat": -33.886854,
    "lon": 151.092425
  },
  {
    "name": "Strathfield south",
    "postcode": 2136,
    "state": "NSW",
    "lat": -33.891711,
    "lon": 151.082992
  },
  {
    "name": "Breakfast point",
    "postcode": 2137,
    "state": "NSW",
    "lat": -33.841583,
    "lon": 151.107502
  },
  {
    "name": "Cabarita",
    "postcode": 2137,
    "state": "NSW",
    "lat": -33.849081,
    "lon": 151.113765
  },
  {
    "name": "Concord",
    "postcode": 2137,
    "state": "NSW",
    "lat": -33.857857,
    "lon": 151.103502
  },
  {
    "name": "Mortlake",
    "postcode": 2137,
    "state": "NSW",
    "lat": -33.843435,
    "lon": 151.10698
  },
  {
    "name": "North strathfield",
    "postcode": 2137,
    "state": "NSW",
    "lat": -33.85746,
    "lon": 151.091954
  },
  {
    "name": "Concord west",
    "postcode": 2138,
    "state": "NSW",
    "lat": -33.848041,
    "lon": 151.087326
  },
  {
    "name": "Liberty grove",
    "postcode": 2138,
    "state": "NSW",
    "lat": -33.841665,
    "lon": 151.083609
  },
  {
    "name": "Rhodes",
    "postcode": 2138,
    "state": "NSW",
    "lat": -33.830764,
    "lon": 151.088105
  },
  {
    "name": "Homebush",
    "postcode": 2140,
    "state": "NSW",
    "lat": -33.859654,
    "lon": 151.081847
  },
  {
    "name": "Homebush south",
    "postcode": 2140,
    "state": "NSW",
    "lat": -33.867767,
    "lon": 151.08447
  },
  {
    "name": "Homebush west",
    "postcode": 2140,
    "state": "NSW",
    "lat": -33.866788,
    "lon": 151.069369
  },
  {
    "name": "Berala",
    "postcode": 2141,
    "state": "NSW",
    "lat": -33.871904,
    "lon": 151.031033
  },
  {
    "name": "Lidcombe",
    "postcode": 2141,
    "state": "NSW",
    "lat": -33.865218,
    "lon": 151.043519
  },
  {
    "name": "Lidcombe north",
    "postcode": 2141,
    "state": "NSW",
    "lat": -33.854197,
    "lon": 151.047419
  },
  {
    "name": "Rookwood",
    "postcode": 2141,
    "state": "NSW",
    "lat": -33.866398,
    "lon": 151.058147
  },
  {
    "name": "Blaxcell",
    "postcode": 2142,
    "state": "NSW",
    "lat": -33.853251,
    "lon": 151.008129
  },
  {
    "name": "Camellia",
    "postcode": 2142,
    "state": "NSW",
    "lat": -33.816872,
    "lon": 151.022191
  },
  {
    "name": "Clyde",
    "postcode": 2142,
    "state": "NSW",
    "lat": -33.832322,
    "lon": 151.019414
  },
  {
    "name": "Granville",
    "postcode": 2142,
    "state": "NSW",
    "lat": -33.835887,
    "lon": 151.01064
  },
  {
    "name": "Holroyd",
    "postcode": 2142,
    "state": "NSW",
    "lat": -33.829836,
    "lon": 150.993334
  },
  {
    "name": "Rosehill",
    "postcode": 2142,
    "state": "NSW",
    "lat": -33.819992,
    "lon": 151.024558
  },
  {
    "name": "South granville",
    "postcode": 2142,
    "state": "NSW",
    "lat": -33.863022,
    "lon": 151.006224
  },
  {
    "name": "Birrong",
    "postcode": 2143,
    "state": "NSW",
    "lat": -33.89022,
    "lon": 151.022398
  },
  {
    "name": "Potts hill",
    "postcode": 2143,
    "state": "NSW",
    "lat": -33.898247,
    "lon": 151.031087
  },
  {
    "name": "Regents park",
    "postcode": 2143,
    "state": "NSW",
    "lat": -33.883928,
    "lon": 151.023796
  },
  {
    "name": "Auburn",
    "postcode": 2144,
    "state": "NSW",
    "lat": -33.849322,
    "lon": 151.033421
  },
  {
    "name": "Girraween",
    "postcode": 2145,
    "state": "NSW",
    "lat": -33.799843,
    "lon": 150.947276
  },
  {
    "name": "Greystanes",
    "postcode": 2145,
    "state": "NSW",
    "lat": -33.829667,
    "lon": 150.951452
  },
  {
    "name": "Mays hill",
    "postcode": 2145,
    "state": "NSW",
    "lat": -33.82066,
    "lon": 150.990511
  },
  {
    "name": "Pemulwuy",
    "postcode": 2145,
    "state": "NSW",
    "lat": -33.821944,
    "lon": 150.923752
  },
  {
    "name": "Pendle hill",
    "postcode": 2145,
    "state": "NSW",
    "lat": -33.801912,
    "lon": 150.955614
  },
  {
    "name": "South wentworthville",
    "postcode": 2145,
    "state": "NSW",
    "lat": -33.823892,
    "lon": 150.969376
  },
  {
    "name": "Wentworthville",
    "postcode": 2145,
    "state": "NSW",
    "lat": -33.805922,
    "lon": 150.970183
  },
  {
    "name": "Westmead",
    "postcode": 2145,
    "state": "NSW",
    "lat": -33.805332,
    "lon": 150.986608
  },
  {
    "name": "Old toongabbie",
    "postcode": 2146,
    "state": "NSW",
    "lat": -33.792713,
    "lon": 150.974108
  },
  {
    "name": "Toongabbie",
    "postcode": 2146,
    "state": "NSW",
    "lat": -33.788942,
    "lon": 150.950644
  },
  {
    "name": "Toongabbie east",
    "postcode": 2146,
    "state": "NSW",
    "lat": -33.788155,
    "lon": 150.960639
  },
  {
    "name": "Kings langley",
    "postcode": 2147,
    "state": "NSW",
    "lat": -33.742079,
    "lon": 150.922711
  },
  {
    "name": "Lalor park",
    "postcode": 2147,
    "state": "NSW",
    "lat": -33.761339,
    "lon": 150.930337
  },
  {
    "name": "Seven hills",
    "postcode": 2147,
    "state": "NSW",
    "lat": -33.775477,
    "lon": 150.934257
  },
  {
    "name": "Seven hills west",
    "postcode": 2147,
    "state": "NSW",
    "lat": -33.771047,
    "lon": 150.923871
  },
  {
    "name": "Arndell park",
    "postcode": 2148,
    "state": "NSW",
    "lat": -33.787266,
    "lon": 150.871959
  },
  {
    "name": "Blacktown",
    "postcode": 2148,
    "state": "NSW",
    "lat": -33.770184,
    "lon": 150.908501
  },
  {
    "name": "Blacktown westpoint",
    "postcode": 2148,
    "state": "NSW",
    "lat": -33.770162,
    "lon": 150.905148
  },
  {
    "name": "Huntingwood",
    "postcode": 2148,
    "state": "NSW",
    "lat": -33.797537,
    "lon": 150.879863
  },
  {
    "name": "Kings park",
    "postcode": 2148,
    "state": "NSW",
    "lat": -33.745736,
    "lon": 150.904598
  },
  {
    "name": "Marayong",
    "postcode": 2148,
    "state": "NSW",
    "lat": -33.746168,
    "lon": 150.898338
  },
  {
    "name": "Prospect",
    "postcode": 2148,
    "state": "NSW",
    "lat": -33.801553,
    "lon": 150.916198
  },
  {
    "name": "Harris park",
    "postcode": 2150,
    "state": "NSW",
    "lat": -33.822427,
    "lon": 151.008961
  },
  {
    "name": "Parramatta",
    "postcode": 2150,
    "state": "NSW",
    "lat": -33.816957,
    "lon": 151.003451
  },
  {
    "name": "Parramatta westfield",
    "postcode": 2150,
    "state": "NSW",
    "lat": -33.817717,
    "lon": 151.001359
  },
  {
    "name": "North parramatta",
    "postcode": 2151,
    "state": "NSW",
    "lat": -33.798043,
    "lon": 151.010707
  },
  {
    "name": "North rocks",
    "postcode": 2151,
    "state": "NSW",
    "lat": -33.768119,
    "lon": 151.02854
  },
  {
    "name": "Northmead",
    "postcode": 2152,
    "state": "NSW",
    "lat": -33.783849,
    "lon": 150.994336
  },
  {
    "name": "Baulkham hills",
    "postcode": 2153,
    "state": "NSW",
    "lat": -33.758601,
    "lon": 150.992887
  },
  {
    "name": "Bella vista",
    "postcode": 2153,
    "state": "NSW",
    "lat": -33.737345,
    "lon": 150.95501
  },
  {
    "name": "Winston hills",
    "postcode": 2153,
    "state": "NSW",
    "lat": -33.776054,
    "lon": 150.987795
  },
  {
    "name": "Castle hill",
    "postcode": 2154,
    "state": "NSW",
    "lat": -33.732307,
    "lon": 151.005616
  },
  {
    "name": "Beaumont hills",
    "postcode": 2155,
    "state": "NSW",
    "lat": -33.703416,
    "lon": 150.946875
  },
  {
    "name": "Kellyville",
    "postcode": 2155,
    "state": "NSW",
    "lat": -33.712415,
    "lon": 150.958009
  },
  {
    "name": "Kellyville ridge",
    "postcode": 2155,
    "state": "NSW",
    "lat": -33.700104,
    "lon": 150.92865
  },
  {
    "name": "Rouse hill",
    "postcode": 2155,
    "state": "NSW",
    "lat": -33.682068,
    "lon": 150.915397
  },
  {
    "name": "Annangrove",
    "postcode": 2156,
    "state": "NSW",
    "lat": -33.657772,
    "lon": 150.943505
  },
  {
    "name": "Glenhaven",
    "postcode": 2156,
    "state": "NSW",
    "lat": -33.703218,
    "lon": 151.006899
  },
  {
    "name": "Kenthurst",
    "postcode": 2156,
    "state": "NSW",
    "lat": -33.661023,
    "lon": 151.005034
  },
  {
    "name": "Canoelands",
    "postcode": 2157,
    "state": "NSW",
    "lat": -33.508714,
    "lon": 151.061148
  },
  {
    "name": "Forest glen",
    "postcode": 2157,
    "state": "NSW",
    "lat": -33.549519,
    "lon": 151.012846
  },
  {
    "name": "Glenorie",
    "postcode": 2157,
    "state": "NSW",
    "lat": -33.620011,
    "lon": 151.023035
  },
  {
    "name": "Dural",
    "postcode": 2158,
    "state": "NSW",
    "lat": -33.681875,
    "lon": 151.028435
  },
  {
    "name": "Middle dural",
    "postcode": 2158,
    "state": "NSW",
    "lat": -33.648471,
    "lon": 151.021276
  },
  {
    "name": "Round corner",
    "postcode": 2158,
    "state": "NSW",
    "lat": -33.695103,
    "lon": 151.017906
  },
  {
    "name": "Arcadia",
    "postcode": 2159,
    "state": "NSW",
    "lat": -33.623101,
    "lon": 151.052726
  },
  {
    "name": "Berrilee",
    "postcode": 2159,
    "state": "NSW",
    "lat": -33.61497,
    "lon": 151.095573
  },
  {
    "name": "Fiddletown",
    "postcode": 2159,
    "state": "NSW",
    "lat": -33.602321,
    "lon": 151.055702
  },
  {
    "name": "Galston",
    "postcode": 2159,
    "state": "NSW",
    "lat": -33.652661,
    "lon": 151.043059
  },
  {
    "name": "Merrylands",
    "postcode": 2160,
    "state": "NSW",
    "lat": -33.836381,
    "lon": 150.989219
  },
  {
    "name": "Merrylands west",
    "postcode": 2160,
    "state": "NSW",
    "lat": -33.832864,
    "lon": 150.972036
  },
  {
    "name": "Guildford",
    "postcode": 2161,
    "state": "NSW",
    "lat": -33.853984,
    "lon": 150.985958
  },
  {
    "name": "Guildford west",
    "postcode": 2161,
    "state": "NSW",
    "lat": -33.851099,
    "lon": 150.972299
  },
  {
    "name": "Old guildford",
    "postcode": 2161,
    "state": "NSW",
    "lat": -33.867084,
    "lon": 150.988073
  },
  {
    "name": "Yennora",
    "postcode": 2161,
    "state": "NSW",
    "lat": -33.860889,
    "lon": 150.969356
  },
  {
    "name": "Chester hill",
    "postcode": 2162,
    "state": "NSW",
    "lat": -33.883157,
    "lon": 151.001185
  },
  {
    "name": "Sefton",
    "postcode": 2162,
    "state": "NSW",
    "lat": -33.885501,
    "lon": 151.011469
  },
  {
    "name": "Carramar",
    "postcode": 2163,
    "state": "NSW",
    "lat": -33.884558,
    "lon": 150.961884
  },
  {
    "name": "Lansdowne",
    "postcode": 2163,
    "state": "NSW",
    "lat": -33.893687,
    "lon": 150.971005
  },
  {
    "name": "Villawood",
    "postcode": 2163,
    "state": "NSW",
    "lat": -33.883679,
    "lon": 150.976468
  },
  {
    "name": "Smithfield",
    "postcode": 2164,
    "state": "NSW",
    "lat": -33.853546,
    "lon": 150.940431
  },
  {
    "name": "Smithfield west",
    "postcode": 2164,
    "state": "NSW",
    "lat": -33.850834,
    "lon": 150.922215
  },
  {
    "name": "Wetherill park",
    "postcode": 2164,
    "state": "NSW",
    "lat": -33.847512,
    "lon": 150.913204
  },
  {
    "name": "Woodpark",
    "postcode": 2164,
    "state": "NSW",
    "lat": -33.84063,
    "lon": 150.961859
  },
  {
    "name": "Fairfield",
    "postcode": 2165,
    "state": "NSW",
    "lat": -33.868529,
    "lon": 150.955512
  },
  {
    "name": "Fairfield east",
    "postcode": 2165,
    "state": "NSW",
    "lat": -33.869449,
    "lon": 150.977528
  },
  {
    "name": "Fairfield heights",
    "postcode": 2165,
    "state": "NSW",
    "lat": -33.864603,
    "lon": 150.938451
  },
  {
    "name": "Fairfield west",
    "postcode": 2165,
    "state": "NSW",
    "lat": -33.868955,
    "lon": 150.922057
  },
  {
    "name": "Cabramatta",
    "postcode": 2166,
    "state": "NSW",
    "lat": -33.89507,
    "lon": 150.935889
  },
  {
    "name": "Cabramatta west",
    "postcode": 2166,
    "state": "NSW",
    "lat": -33.899136,
    "lon": 150.917514
  },
  {
    "name": "Canley heights",
    "postcode": 2166,
    "state": "NSW",
    "lat": -33.883633,
    "lon": 150.923895
  },
  {
    "name": "Canley vale",
    "postcode": 2166,
    "state": "NSW",
    "lat": -33.887291,
    "lon": 150.943275
  },
  {
    "name": "Lansvale",
    "postcode": 2166,
    "state": "NSW",
    "lat": -33.89733,
    "lon": 150.952786
  },
  {
    "name": "Glenfield",
    "postcode": 2167,
    "state": "NSW",
    "lat": -33.971305,
    "lon": 150.894517
  },
  {
    "name": "Ashcroft",
    "postcode": 2168,
    "state": "NSW",
    "lat": -33.917587,
    "lon": 150.899095
  },
  {
    "name": "Busby",
    "postcode": 2168,
    "state": "NSW",
    "lat": -33.910896,
    "lon": 150.875155
  },
  {
    "name": "Cartwright",
    "postcode": 2168,
    "state": "NSW",
    "lat": -33.926577,
    "lon": 150.890356
  },
  {
    "name": "Green valley",
    "postcode": 2168,
    "state": "NSW",
    "lat": -33.903526,
    "lon": 150.86636
  },
  {
    "name": "Heckenberg",
    "postcode": 2168,
    "state": "NSW",
    "lat": -33.911083,
    "lon": 150.889921
  },
  {
    "name": "Hinchinbrook",
    "postcode": 2168,
    "state": "NSW",
    "lat": -33.916611,
    "lon": 150.863863
  },
  {
    "name": "Sadleir",
    "postcode": 2168,
    "state": "NSW",
    "lat": -33.920629,
    "lon": 150.890212
  },
  {
    "name": "Casula",
    "postcode": 2170,
    "state": "NSW",
    "lat": -33.94735,
    "lon": 150.907753
  },
  {
    "name": "Casula mall",
    "postcode": 2170,
    "state": "NSW",
    "lat": -33.950422,
    "lon": 150.909367
  },
  {
    "name": "Chipping norton",
    "postcode": 2170,
    "state": "NSW",
    "lat": -33.916829,
    "lon": 150.961662
  },
  {
    "name": "Hammondville",
    "postcode": 2170,
    "state": "NSW",
    "lat": -33.948113,
    "lon": 150.953727
  },
  {
    "name": "Liverpool",
    "postcode": 2170,
    "state": "NSW",
    "lat": -33.92505,
    "lon": 150.924429
  },
  {
    "name": "Liverpool south",
    "postcode": 2170,
    "state": "NSW",
    "lat": -33.933376,
    "lon": 150.906608
  },
  {
    "name": "Liverpool westfield",
    "postcode": 2170,
    "state": "NSW",
    "lat": -33.918951,
    "lon": 150.923868
  },
  {
    "name": "Lurnea",
    "postcode": 2170,
    "state": "NSW",
    "lat": -33.931947,
    "lon": 150.896105
  },
  {
    "name": "Moorebank",
    "postcode": 2170,
    "state": "NSW",
    "lat": -33.933805,
    "lon": 150.953602
  },
  {
    "name": "Mount pritchard",
    "postcode": 2170,
    "state": "NSW",
    "lat": -33.894817,
    "lon": 150.90304
  },
  {
    "name": "Prestons",
    "postcode": 2170,
    "state": "NSW",
    "lat": -33.942903,
    "lon": 150.872145
  },
  {
    "name": "Warwick farm",
    "postcode": 2170,
    "state": "NSW",
    "lat": -33.913423,
    "lon": 150.932752
  },
  {
    "name": "Cecil hills",
    "postcode": 2171,
    "state": "NSW",
    "lat": -33.883696,
    "lon": 150.853171
  },
  {
    "name": "Horningsea park",
    "postcode": 2171,
    "state": "NSW",
    "lat": -33.945088,
    "lon": 150.842975
  },
  {
    "name": "Hoxton park",
    "postcode": 2171,
    "state": "NSW",
    "lat": -33.92678,
    "lon": 150.857888
  },
  {
    "name": "Middleton grange",
    "postcode": 2171,
    "state": "NSW",
    "lat": -33.914093,
    "lon": 150.843547
  },
  {
    "name": "West hoxton",
    "postcode": 2171,
    "state": "NSW",
    "lat": -33.922272,
    "lon": 150.839967
  },
  {
    "name": "Pleasure point",
    "postcode": 2172,
    "state": "NSW",
    "lat": -33.966909,
    "lon": 150.98764
  },
  {
    "name": "Sandy point",
    "postcode": 2172,
    "state": "NSW",
    "lat": -33.975419,
    "lon": 150.993967
  },
  {
    "name": "Voyager point",
    "postcode": 2172,
    "state": "NSW",
    "lat": -33.964547,
    "lon": 150.97238
  },
  {
    "name": "Holsworthy",
    "postcode": 2173,
    "state": "NSW",
    "lat": -33.950403,
    "lon": 150.949972
  },
  {
    "name": "Wattle grove",
    "postcode": 2173,
    "state": "NSW",
    "lat": -33.963316,
    "lon": 150.936403
  },
  {
    "name": "Horsley park",
    "postcode": 2175,
    "state": "NSW",
    "lat": -33.845034,
    "lon": 150.848192
  },
  {
    "name": "Abbotsbury",
    "postcode": 2176,
    "state": "NSW",
    "lat": -33.877538,
    "lon": 150.867768
  },
  {
    "name": "Bossley park",
    "postcode": 2176,
    "state": "NSW",
    "lat": -33.86626,
    "lon": 150.88415
  },
  {
    "name": "Edensor park",
    "postcode": 2176,
    "state": "NSW",
    "lat": -33.877057,
    "lon": 150.875292
  },
  {
    "name": "Greenfield park",
    "postcode": 2176,
    "state": "NSW",
    "lat": -33.872187,
    "lon": 150.889408
  },
  {
    "name": "Prairiewood",
    "postcode": 2176,
    "state": "NSW",
    "lat": -33.867342,
    "lon": 150.90213
  },
  {
    "name": "St johns park",
    "postcode": 2176,
    "state": "NSW",
    "lat": -33.885824,
    "lon": 150.905403
  },
  {
    "name": "Wakeley",
    "postcode": 2176,
    "state": "NSW",
    "lat": -33.873966,
    "lon": 150.90888
  },
  {
    "name": "Bonnyrigg",
    "postcode": 2177,
    "state": "NSW",
    "lat": -33.888801,
    "lon": 150.886505
  },
  {
    "name": "Bonnyrigg heights",
    "postcode": 2177,
    "state": "NSW",
    "lat": -33.892667,
    "lon": 150.868448
  },
  {
    "name": "Cecil park",
    "postcode": 2178,
    "state": "NSW",
    "lat": -33.87478,
    "lon": 150.838225
  },
  {
    "name": "Kemps creek",
    "postcode": 2178,
    "state": "NSW",
    "lat": -33.88013,
    "lon": 150.790485
  },
  {
    "name": "Mount vernon",
    "postcode": 2178,
    "state": "NSW",
    "lat": -33.862377,
    "lon": 150.807887
  },
  {
    "name": "Austral",
    "postcode": 2179,
    "state": "NSW",
    "lat": -33.933109,
    "lon": 150.812031
  },
  {
    "name": "Leppington",
    "postcode": 2179,
    "state": "NSW",
    "lat": -33.964333,
    "lon": 150.81727
  },
  {
    "name": "Chullora",
    "postcode": 2190,
    "state": "NSW",
    "lat": -33.892441,
    "lon": 151.055898
  },
  {
    "name": "Greenacre",
    "postcode": 2190,
    "state": "NSW",
    "lat": -33.906744,
    "lon": 151.057271
  },
  {
    "name": "Mount lewis",
    "postcode": 2190,
    "state": "NSW",
    "lat": -33.917157,
    "lon": 151.047838
  },
  {
    "name": "Belfield",
    "postcode": 2191,
    "state": "NSW",
    "lat": -33.902107,
    "lon": 151.083553
  },
  {
    "name": "Belmore",
    "postcode": 2192,
    "state": "NSW",
    "lat": -33.916035,
    "lon": 151.0875
  },
  {
    "name": "Ashbury",
    "postcode": 2193,
    "state": "NSW",
    "lat": -33.901897,
    "lon": 151.11932
  },
  {
    "name": "Canterbury",
    "postcode": 2193,
    "state": "NSW",
    "lat": -33.910848,
    "lon": 151.121145
  },
  {
    "name": "Hurlstone park",
    "postcode": 2193,
    "state": "NSW",
    "lat": -33.909964,
    "lon": 151.13224
  },
  {
    "name": "Campsie",
    "postcode": 2194,
    "state": "NSW",
    "lat": -33.914373,
    "lon": 151.103465
  },
  {
    "name": "Lakemba",
    "postcode": 2195,
    "state": "NSW",
    "lat": -33.920457,
    "lon": 151.075921
  },
  {
    "name": "Wiley park",
    "postcode": 2195,
    "state": "NSW",
    "lat": -33.922464,
    "lon": 151.068194
  },
  {
    "name": "Punchbowl",
    "postcode": 2196,
    "state": "NSW",
    "lat": -33.925686,
    "lon": 151.054635
  },
  {
    "name": "Roselands",
    "postcode": 2196,
    "state": "NSW",
    "lat": -33.933167,
    "lon": 151.073197
  },
  {
    "name": "Bass hill",
    "postcode": 2197,
    "state": "NSW",
    "lat": -33.900608,
    "lon": 150.992888
  },
  {
    "name": "Georges hall",
    "postcode": 2198,
    "state": "NSW",
    "lat": -33.912851,
    "lon": 150.982469
  },
  {
    "name": "Yagoona",
    "postcode": 2199,
    "state": "NSW",
    "lat": -33.907725,
    "lon": 151.026108
  },
  {
    "name": "Yagoona west",
    "postcode": 2199,
    "state": "NSW",
    "lat": -33.918726,
    "lon": 151.037007
  },
  {
    "name": "Bankstown",
    "postcode": 2200,
    "state": "NSW",
    "lat": -33.919539,
    "lon": 151.034909
  },
  {
    "name": "Bankstown aerodrome",
    "postcode": 2200,
    "state": "NSW",
    "lat": -33.920032,
    "lon": 150.995041
  },
  {
    "name": "Bankstown north",
    "postcode": 2200,
    "state": "NSW",
    "lat": -33.904622,
    "lon": 151.039298
  },
  {
    "name": "Bankstown square",
    "postcode": 2200,
    "state": "NSW",
    "lat": -33.916017,
    "lon": 151.038538
  },
  {
    "name": "Condell park",
    "postcode": 2200,
    "state": "NSW",
    "lat": -33.922034,
    "lon": 151.011619
  },
  {
    "name": "Manahan",
    "postcode": 2200,
    "state": "NSW",
    "lat": -33.916293,
    "lon": 151.005545
  },
  {
    "name": "Mount lewis",
    "postcode": 2200,
    "state": "NSW",
    "lat": -33.917157,
    "lon": 151.047838
  },
  {
    "name": "Dulwich hill",
    "postcode": 2203,
    "state": "NSW",
    "lat": -33.904689,
    "lon": 151.138774
  },
  {
    "name": "Marrickville",
    "postcode": 2204,
    "state": "NSW",
    "lat": -33.910923,
    "lon": 151.157187
  },
  {
    "name": "Marrickville metro",
    "postcode": 2204,
    "state": "NSW",
    "lat": -33.906781,
    "lon": 151.171858
  },
  {
    "name": "Marrickville south",
    "postcode": 2204,
    "state": "NSW",
    "lat": -33.915178,
    "lon": 151.151568
  },
  {
    "name": "Arncliffe",
    "postcode": 2205,
    "state": "NSW",
    "lat": -33.936592,
    "lon": 151.146805
  },
  {
    "name": "Turrella",
    "postcode": 2205,
    "state": "NSW",
    "lat": -33.929963,
    "lon": 151.140643
  },
  {
    "name": "Wolli creek",
    "postcode": 2205,
    "state": "NSW",
    "lat": -33.930744,
    "lon": 151.155272
  },
  {
    "name": "Clemton park",
    "postcode": 2206,
    "state": "NSW",
    "lat": -33.925357,
    "lon": 151.103282
  },
  {
    "name": "Earlwood",
    "postcode": 2206,
    "state": "NSW",
    "lat": -33.92651,
    "lon": 151.12648
  },
  {
    "name": "Bardwell park",
    "postcode": 2207,
    "state": "NSW",
    "lat": -33.93207,
    "lon": 151.125594
  },
  {
    "name": "Bardwell valley",
    "postcode": 2207,
    "state": "NSW",
    "lat": -33.935083,
    "lon": 151.134686
  },
  {
    "name": "Bexley",
    "postcode": 2207,
    "state": "NSW",
    "lat": -33.949135,
    "lon": 151.12721
  },
  {
    "name": "Bexley north",
    "postcode": 2207,
    "state": "NSW",
    "lat": -33.938306,
    "lon": 151.114186
  },
  {
    "name": "Bexley south",
    "postcode": 2207,
    "state": "NSW",
    "lat": -33.959548,
    "lon": 151.117388
  },
  {
    "name": "Kingsgrove",
    "postcode": 2208,
    "state": "NSW",
    "lat": -33.939481,
    "lon": 151.098941
  },
  {
    "name": "Beverly hills",
    "postcode": 2209,
    "state": "NSW",
    "lat": -33.954218,
    "lon": 151.076364
  },
  {
    "name": "Narwee",
    "postcode": 2209,
    "state": "NSW",
    "lat": -33.948609,
    "lon": 151.069628
  },
  {
    "name": "Lugarno",
    "postcode": 2210,
    "state": "NSW",
    "lat": -33.982956,
    "lon": 151.046942
  },
  {
    "name": "Peakhurst",
    "postcode": 2210,
    "state": "NSW",
    "lat": -33.959715,
    "lon": 151.062187
  },
  {
    "name": "Peakhurst heights",
    "postcode": 2210,
    "state": "NSW",
    "lat": -33.968127,
    "lon": 151.057596
  },
  {
    "name": "Riverwood",
    "postcode": 2210,
    "state": "NSW",
    "lat": -33.949859,
    "lon": 151.052469
  },
  {
    "name": "Padstow",
    "postcode": 2211,
    "state": "NSW",
    "lat": -33.953915,
    "lon": 151.038163
  },
  {
    "name": "Padstow heights",
    "postcode": 2211,
    "state": "NSW",
    "lat": -33.971073,
    "lon": 151.030955
  },
  {
    "name": "Revesby",
    "postcode": 2212,
    "state": "NSW",
    "lat": -33.951507,
    "lon": 151.017247
  },
  {
    "name": "Revesby heights",
    "postcode": 2212,
    "state": "NSW",
    "lat": -33.968802,
    "lon": 151.015063
  },
  {
    "name": "Revesby north",
    "postcode": 2212,
    "state": "NSW",
    "lat": -33.943582,
    "lon": 151.007296
  },
  {
    "name": "East hills",
    "postcode": 2213,
    "state": "NSW",
    "lat": -33.963359,
    "lon": 150.986695
  },
  {
    "name": "Panania",
    "postcode": 2213,
    "state": "NSW",
    "lat": -33.95613,
    "lon": 150.998047
  },
  {
    "name": "Picnic point",
    "postcode": 2213,
    "state": "NSW",
    "lat": -33.979303,
    "lon": 151.000056
  },
  {
    "name": "Milperra",
    "postcode": 2214,
    "state": "NSW",
    "lat": -33.937834,
    "lon": 150.989263
  },
  {
    "name": "Banksia",
    "postcode": 2216,
    "state": "NSW",
    "lat": -33.945237,
    "lon": 151.140161
  },
  {
    "name": "Brighton-le-sands",
    "postcode": 2216,
    "state": "NSW",
    "lat": -33.960538,
    "lon": 151.155362
  },
  {
    "name": "Kyeemagh",
    "postcode": 2216,
    "state": "NSW",
    "lat": -33.951452,
    "lon": 151.159943
  },
  {
    "name": "Rockdale",
    "postcode": 2216,
    "state": "NSW",
    "lat": -33.952747,
    "lon": 151.137624
  },
  {
    "name": "Beverley park",
    "postcode": 2217,
    "state": "NSW",
    "lat": -33.975135,
    "lon": 151.131345
  },
  {
    "name": "Kogarah",
    "postcode": 2217,
    "state": "NSW",
    "lat": -33.963107,
    "lon": 151.133462
  },
  {
    "name": "Kogarah bay",
    "postcode": 2217,
    "state": "NSW",
    "lat": -33.979117,
    "lon": 151.123296
  },
  {
    "name": "Monterey",
    "postcode": 2217,
    "state": "NSW",
    "lat": -33.973068,
    "lon": 151.150983
  },
  {
    "name": "Ramsgate",
    "postcode": 2217,
    "state": "NSW",
    "lat": -33.984683,
    "lon": 151.139847
  },
  {
    "name": "Ramsgate beach",
    "postcode": 2217,
    "state": "NSW",
    "lat": -33.981114,
    "lon": 151.1483
  },
  {
    "name": "Allawah",
    "postcode": 2218,
    "state": "NSW",
    "lat": -33.970018,
    "lon": 151.114517
  },
  {
    "name": "Carlton",
    "postcode": 2218,
    "state": "NSW",
    "lat": -33.968523,
    "lon": 151.124528
  },
  {
    "name": "Dolls point",
    "postcode": 2219,
    "state": "NSW",
    "lat": -33.993495,
    "lon": 151.146801
  },
  {
    "name": "Sandringham",
    "postcode": 2219,
    "state": "NSW",
    "lat": -33.998763,
    "lon": 151.139252
  },
  {
    "name": "Sans souci",
    "postcode": 2219,
    "state": "NSW",
    "lat": -33.990614,
    "lon": 151.133074
  },
  {
    "name": "Hurstville",
    "postcode": 2220,
    "state": "NSW",
    "lat": -33.965923,
    "lon": 151.101184
  },
  {
    "name": "Hurstville grove",
    "postcode": 2220,
    "state": "NSW",
    "lat": -33.980653,
    "lon": 151.091136
  },
  {
    "name": "Hurstville westfield",
    "postcode": 2220,
    "state": "NSW",
    "lat": -33.965517,
    "lon": 151.104903
  },
  {
    "name": "Blakehurst",
    "postcode": 2221,
    "state": "NSW",
    "lat": -33.988743,
    "lon": 151.112314
  },
  {
    "name": "Carss park",
    "postcode": 2221,
    "state": "NSW",
    "lat": -33.986556,
    "lon": 151.119041
  },
  {
    "name": "Connells point",
    "postcode": 2221,
    "state": "NSW",
    "lat": -33.991871,
    "lon": 151.089495
  },
  {
    "name": "Kyle bay",
    "postcode": 2221,
    "state": "NSW",
    "lat": -33.991238,
    "lon": 151.098301
  },
  {
    "name": "South hurstville",
    "postcode": 2221,
    "state": "NSW",
    "lat": -33.977595,
    "lon": 151.104909
  },
  {
    "name": "Penshurst",
    "postcode": 2222,
    "state": "NSW",
    "lat": -33.963346,
    "lon": 151.086744
  },
  {
    "name": "Mortdale",
    "postcode": 2223,
    "state": "NSW",
    "lat": -33.972239,
    "lon": 151.075391
  },
  {
    "name": "Oatley",
    "postcode": 2223,
    "state": "NSW",
    "lat": -33.981428,
    "lon": 151.082765
  },
  {
    "name": "Kangaroo point",
    "postcode": 2224,
    "state": "NSW",
    "lat": -33.997972,
    "lon": 151.096235
  },
  {
    "name": "Sylvania",
    "postcode": 2224,
    "state": "NSW",
    "lat": -34.008075,
    "lon": 151.105104
  },
  {
    "name": "Sylvania southgate",
    "postcode": 2224,
    "state": "NSW",
    "lat": -34.009895,
    "lon": 151.104166
  },
  {
    "name": "Sylvania waters",
    "postcode": 2224,
    "state": "NSW",
    "lat": -34.019802,
    "lon": 151.115847
  },
  {
    "name": "Caravan head",
    "postcode": 2225,
    "state": "NSW",
    "lat": -33.997441,
    "lon": 151.087892
  },
  {
    "name": "Oyster bay",
    "postcode": 2225,
    "state": "NSW",
    "lat": -34.006894,
    "lon": 151.081067
  },
  {
    "name": "Bonnet bay",
    "postcode": 2226,
    "state": "NSW",
    "lat": -34.009518,
    "lon": 151.054252
  },
  {
    "name": "Como",
    "postcode": 2226,
    "state": "NSW",
    "lat": -34.004186,
    "lon": 151.068288
  },
  {
    "name": "Jannali",
    "postcode": 2226,
    "state": "NSW",
    "lat": -34.017074,
    "lon": 151.065081
  },
  {
    "name": "Gymea",
    "postcode": 2227,
    "state": "NSW",
    "lat": -34.033142,
    "lon": 151.085421
  },
  {
    "name": "Gymea bay",
    "postcode": 2227,
    "state": "NSW",
    "lat": -34.048156,
    "lon": 151.086087
  },
  {
    "name": "Miranda",
    "postcode": 2228,
    "state": "NSW",
    "lat": -34.034014,
    "lon": 151.100428
  },
  {
    "name": "Yowie bay",
    "postcode": 2228,
    "state": "NSW",
    "lat": -34.049866,
    "lon": 151.104325
  },
  {
    "name": "Caringbah",
    "postcode": 2229,
    "state": "NSW",
    "lat": -34.04316,
    "lon": 151.123102
  },
  {
    "name": "Dolans bay",
    "postcode": 2229,
    "state": "NSW",
    "lat": -34.05968,
    "lon": 151.126746
  },
  {
    "name": "Lilli pilli",
    "postcode": 2229,
    "state": "NSW",
    "lat": -34.069836,
    "lon": 151.114032
  },
  {
    "name": "Port hacking",
    "postcode": 2229,
    "state": "NSW",
    "lat": -34.067503,
    "lon": 151.122449
  },
  {
    "name": "Taren point",
    "postcode": 2229,
    "state": "NSW",
    "lat": -34.012545,
    "lon": 151.125456
  },
  {
    "name": "Warumbul",
    "postcode": 2229,
    "state": "NSW",
    "lat": -34.078313,
    "lon": 151.102646
  },
  {
    "name": "Bundeena",
    "postcode": 2230,
    "state": "NSW",
    "lat": -34.085064,
    "lon": 151.151259
  },
  {
    "name": "Burraneer",
    "postcode": 2230,
    "state": "NSW",
    "lat": -34.065063,
    "lon": 151.137171
  },
  {
    "name": "Cronulla",
    "postcode": 2230,
    "state": "NSW",
    "lat": -34.051972,
    "lon": 151.153662
  },
  {
    "name": "Maianbar",
    "postcode": 2230,
    "state": "NSW",
    "lat": -34.081826,
    "lon": 151.129788
  },
  {
    "name": "Woolooware",
    "postcode": 2230,
    "state": "NSW",
    "lat": -34.048276,
    "lon": 151.141431
  },
  {
    "name": "Kurnell",
    "postcode": 2231,
    "state": "NSW",
    "lat": -34.008487,
    "lon": 151.204879
  },
  {
    "name": "Audley",
    "postcode": 2232,
    "state": "NSW",
    "lat": -34.075295,
    "lon": 151.056519
  },
  {
    "name": "Garie",
    "postcode": 2232,
    "state": "NSW",
    "lat": -34.171841,
    "lon": 151.062842
  },
  {
    "name": "Grays point",
    "postcode": 2232,
    "state": "NSW",
    "lat": -34.05884,
    "lon": 151.081652
  },
  {
    "name": "Kareela",
    "postcode": 2232,
    "state": "NSW",
    "lat": -34.014668,
    "lon": 151.082733
  },
  {
    "name": "Kirrawee",
    "postcode": 2232,
    "state": "NSW",
    "lat": -34.033743,
    "lon": 151.071196
  },
  {
    "name": "Loftus",
    "postcode": 2232,
    "state": "NSW",
    "lat": -34.048075,
    "lon": 151.051176
  },
  {
    "name": "Sutherland",
    "postcode": 2232,
    "state": "NSW",
    "lat": -34.031432,
    "lon": 151.057965
  },
  {
    "name": "Woronora",
    "postcode": 2232,
    "state": "NSW",
    "lat": -34.020654,
    "lon": 151.047946
  },
  {
    "name": "Engadine",
    "postcode": 2233,
    "state": "NSW",
    "lat": -34.065716,
    "lon": 151.012663
  },
  {
    "name": "Heathcote",
    "postcode": 2233,
    "state": "NSW",
    "lat": -34.079112,
    "lon": 151.008619
  },
  {
    "name": "Waterfall",
    "postcode": 2233,
    "state": "NSW",
    "lat": -34.1352,
    "lon": 150.994957
  },
  {
    "name": "Woronora heights",
    "postcode": 2233,
    "state": "NSW",
    "lat": -34.034836,
    "lon": 151.027656
  },
  {
    "name": "Yarrawarrah",
    "postcode": 2233,
    "state": "NSW",
    "lat": -34.058462,
    "lon": 151.03279
  },
  {
    "name": "Alfords point",
    "postcode": 2234,
    "state": "NSW",
    "lat": -33.993303,
    "lon": 151.024751
  },
  {
    "name": "Bangor",
    "postcode": 2234,
    "state": "NSW",
    "lat": -34.018876,
    "lon": 151.030057
  },
  {
    "name": "Barden ridge",
    "postcode": 2234,
    "state": "NSW",
    "lat": -34.032851,
    "lon": 151.005396
  },
  {
    "name": "Illawong",
    "postcode": 2234,
    "state": "NSW",
    "lat": -33.998018,
    "lon": 151.042591
  },
  {
    "name": "Lucas heights",
    "postcode": 2234,
    "state": "NSW",
    "lat": -34.047985,
    "lon": 150.988369
  },
  {
    "name": "Menai",
    "postcode": 2234,
    "state": "NSW",
    "lat": -34.012564,
    "lon": 151.014645
  },
  {
    "name": "Menai central",
    "postcode": 2234,
    "state": "NSW",
    "lat": -33.998425,
    "lon": 151.063767
  },
  {
    "name": "Bucketty",
    "postcode": 2250,
    "state": "NSW",
    "lat": -33.111273,
    "lon": 151.138861
  },
  {
    "name": "Calga",
    "postcode": 2250,
    "state": "NSW",
    "lat": -33.43835,
    "lon": 151.236467
  },
  {
    "name": "Central mangrove",
    "postcode": 2250,
    "state": "NSW",
    "lat": -33.292384,
    "lon": 151.234661
  },
  {
    "name": "East gosford",
    "postcode": 2250,
    "state": "NSW",
    "lat": -33.438534,
    "lon": 151.354167
  },
  {
    "name": "Erina",
    "postcode": 2250,
    "state": "NSW",
    "lat": -33.437893,
    "lon": 151.383648
  },
  {
    "name": "Erina fair",
    "postcode": 2250,
    "state": "NSW",
    "lat": -33.437221,
    "lon": 151.394139
  },
  {
    "name": "Glenworth valley",
    "postcode": 2250,
    "state": "NSW",
    "lat": -33.423807,
    "lon": 151.17688
  },
  {
    "name": "Gosford",
    "postcode": 2250,
    "state": "NSW",
    "lat": -33.426938,
    "lon": 151.341843
  },
  {
    "name": "Greengrove",
    "postcode": 2250,
    "state": "NSW",
    "lat": -33.382712,
    "lon": 151.145126
  },
  {
    "name": "Holgate",
    "postcode": 2250,
    "state": "NSW",
    "lat": -33.409747,
    "lon": 151.405406
  },
  {
    "name": "Kariong",
    "postcode": 2250,
    "state": "NSW",
    "lat": -33.439733,
    "lon": 151.293333
  },
  {
    "name": "Kulnura",
    "postcode": 2250,
    "state": "NSW",
    "lat": -33.225924,
    "lon": 151.222101
  },
  {
    "name": "Lisarow",
    "postcode": 2250,
    "state": "NSW",
    "lat": -33.380843,
    "lon": 151.371283
  },
  {
    "name": "Lower mangrove",
    "postcode": 2250,
    "state": "NSW",
    "lat": -33.412045,
    "lon": 151.150688
  },
  {
    "name": "Mangrove creek",
    "postcode": 2250,
    "state": "NSW",
    "lat": -33.359231,
    "lon": 151.146082
  },
  {
    "name": "Mangrove mountain",
    "postcode": 2250,
    "state": "NSW",
    "lat": -33.300847,
    "lon": 151.191661
  },
  {
    "name": "Matcham",
    "postcode": 2250,
    "state": "NSW",
    "lat": -33.417004,
    "lon": 151.420834
  },
  {
    "name": "Mooney mooney creek",
    "postcode": 2250,
    "state": "NSW",
    "lat": -33.439621,
    "lon": 151.244578
  },
  {
    "name": "Mount elliot",
    "postcode": 2250,
    "state": "NSW",
    "lat": -33.399915,
    "lon": 151.385524
  },
  {
    "name": "Mount white",
    "postcode": 2250,
    "state": "NSW",
    "lat": -33.461404,
    "lon": 151.190612
  },
  {
    "name": "Narara",
    "postcode": 2250,
    "state": "NSW",
    "lat": -33.395807,
    "lon": 151.346114
  },
  {
    "name": "Niagara park",
    "postcode": 2250,
    "state": "NSW",
    "lat": -33.381996,
    "lon": 151.355782
  },
  {
    "name": "North gosford",
    "postcode": 2250,
    "state": "NSW",
    "lat": -33.41684,
    "lon": 151.348821
  },
  {
    "name": "Peats ridge",
    "postcode": 2250,
    "state": "NSW",
    "lat": -33.351199,
    "lon": 151.229736
  },
  {
    "name": "Point clare",
    "postcode": 2250,
    "state": "NSW",
    "lat": -33.436772,
    "lon": 151.320952
  },
  {
    "name": "Point frederick",
    "postcode": 2250,
    "state": "NSW",
    "lat": -33.449407,
    "lon": 151.341896
  },
  {
    "name": "Somersby",
    "postcode": 2250,
    "state": "NSW",
    "lat": -33.360992,
    "lon": 151.291053
  },
  {
    "name": "Springfield",
    "postcode": 2250,
    "state": "NSW",
    "lat": -33.430406,
    "lon": 151.370764
  },
  {
    "name": "Tascott",
    "postcode": 2250,
    "state": "NSW",
    "lat": -33.450818,
    "lon": 151.319442
  },
  {
    "name": "Ten mile hollow",
    "postcode": 2250,
    "state": "NSW",
    "lat": -33.324602,
    "lon": 151.089946
  },
  {
    "name": "Upper mangrove",
    "postcode": 2250,
    "state": "NSW",
    "lat": -33.293327,
    "lon": 151.122269
  },
  {
    "name": "Wendoree park",
    "postcode": 2250,
    "state": "NSW",
    "lat": -33.455552,
    "lon": 151.155631
  },
  {
    "name": "West gosford",
    "postcode": 2250,
    "state": "NSW",
    "lat": -33.420829,
    "lon": 151.321753
  },
  {
    "name": "Wyoming",
    "postcode": 2250,
    "state": "NSW",
    "lat": -33.40485,
    "lon": 151.350776
  },
  {
    "name": "Avoca beach",
    "postcode": 2251,
    "state": "NSW",
    "lat": -33.464937,
    "lon": 151.432387
  },
  {
    "name": "Bensville",
    "postcode": 2251,
    "state": "NSW",
    "lat": -33.498579,
    "lon": 151.381089
  },
  {
    "name": "Bouddi",
    "postcode": 2251,
    "state": "NSW",
    "lat": -33.511538,
    "lon": 151.400793
  },
  {
    "name": "Copacabana",
    "postcode": 2251,
    "state": "NSW",
    "lat": -33.48994,
    "lon": 151.430558
  },
  {
    "name": "Davistown",
    "postcode": 2251,
    "state": "NSW",
    "lat": -33.485685,
    "lon": 151.360521
  },
  {
    "name": "Green point",
    "postcode": 2251,
    "state": "NSW",
    "lat": -33.451762,
    "lon": 151.360909
  },
  {
    "name": "Kincumber",
    "postcode": 2251,
    "state": "NSW",
    "lat": -33.467738,
    "lon": 151.382147
  },
  {
    "name": "Kincumber south",
    "postcode": 2251,
    "state": "NSW",
    "lat": -33.487271,
    "lon": 151.381035
  },
  {
    "name": "Macmasters beach",
    "postcode": 2251,
    "state": "NSW",
    "lat": -33.492821,
    "lon": 151.416479
  },
  {
    "name": "Picketts valley",
    "postcode": 2251,
    "state": "NSW",
    "lat": -33.456914,
    "lon": 151.412831
  },
  {
    "name": "Saratoga",
    "postcode": 2251,
    "state": "NSW",
    "lat": -33.475692,
    "lon": 151.354149
  },
  {
    "name": "Yattalunga",
    "postcode": 2251,
    "state": "NSW",
    "lat": -33.470568,
    "lon": 151.360536
  },
  {
    "name": "Blackwall",
    "postcode": 2256,
    "state": "NSW",
    "lat": -33.503434,
    "lon": 151.327632
  },
  {
    "name": "Horsfield bay",
    "postcode": 2256,
    "state": "NSW",
    "lat": -33.49347,
    "lon": 151.299908
  },
  {
    "name": "Koolewong",
    "postcode": 2256,
    "state": "NSW",
    "lat": -33.46632,
    "lon": 151.31816
  },
  {
    "name": "Little wobby",
    "postcode": 2256,
    "state": "NSW",
    "lat": -33.548076,
    "lon": 151.252911
  },
  {
    "name": "Patonga",
    "postcode": 2256,
    "state": "NSW",
    "lat": -33.546452,
    "lon": 151.27119
  },
  {
    "name": "Pearl beach",
    "postcode": 2256,
    "state": "NSW",
    "lat": -33.538915,
    "lon": 151.302813
  },
  {
    "name": "Phegans bay",
    "postcode": 2256,
    "state": "NSW",
    "lat": -33.48859,
    "lon": 151.308453
  },
  {
    "name": "Wondabyne",
    "postcode": 2256,
    "state": "NSW",
    "lat": -33.49159,
    "lon": 151.256944
  },
  {
    "name": "Woy woy",
    "postcode": 2256,
    "state": "NSW",
    "lat": -33.485855,
    "lon": 151.324775
  },
  {
    "name": "Woy woy bay",
    "postcode": 2256,
    "state": "NSW",
    "lat": -33.484478,
    "lon": 151.312108
  },
  {
    "name": "Booker bay",
    "postcode": 2257,
    "state": "NSW",
    "lat": -33.511566,
    "lon": 151.34478
  },
  {
    "name": "Box head",
    "postcode": 2257,
    "state": "NSW",
    "lat": -33.536016,
    "lon": 151.344489
  },
  {
    "name": "Daleys point",
    "postcode": 2257,
    "state": "NSW",
    "lat": -33.50569,
    "lon": 151.348181
  },
  {
    "name": "Empire bay",
    "postcode": 2257,
    "state": "NSW",
    "lat": -33.494186,
    "lon": 151.362188
  },
  {
    "name": "Ettalong beach",
    "postcode": 2257,
    "state": "NSW",
    "lat": -33.513696,
    "lon": 151.335289
  },
  {
    "name": "Hardys bay",
    "postcode": 2257,
    "state": "NSW",
    "lat": -33.525157,
    "lon": 151.35744
  },
  {
    "name": "Killcare",
    "postcode": 2257,
    "state": "NSW",
    "lat": -33.525978,
    "lon": 151.362657
  },
  {
    "name": "Killcare heights",
    "postcode": 2257,
    "state": "NSW",
    "lat": -33.52257,
    "lon": 151.370994
  },
  {
    "name": "Pretty beach",
    "postcode": 2257,
    "state": "NSW",
    "lat": -33.52536,
    "lon": 151.351281
  },
  {
    "name": "St huberts island",
    "postcode": 2257,
    "state": "NSW",
    "lat": -33.495721,
    "lon": 151.344441
  },
  {
    "name": "Umina beach",
    "postcode": 2257,
    "state": "NSW",
    "lat": -33.528746,
    "lon": 151.307503
  },
  {
    "name": "Wagstaffe",
    "postcode": 2257,
    "state": "NSW",
    "lat": -33.523185,
    "lon": 151.342598
  },
  {
    "name": "Fountaindale",
    "postcode": 2258,
    "state": "NSW",
    "lat": -33.338303,
    "lon": 151.392826
  },
  {
    "name": "Kangy angy",
    "postcode": 2258,
    "state": "NSW",
    "lat": -33.322397,
    "lon": 151.395063
  },
  {
    "name": "Ourimbah",
    "postcode": 2258,
    "state": "NSW",
    "lat": -33.359703,
    "lon": 151.36965
  },
  {
    "name": "Palm grove",
    "postcode": 2258,
    "state": "NSW",
    "lat": -33.326275,
    "lon": 151.311454
  },
  {
    "name": "Palmdale",
    "postcode": 2258,
    "state": "NSW",
    "lat": -33.331864,
    "lon": 151.373158
  },
  {
    "name": "Alison",
    "postcode": 2259,
    "state": "NSW",
    "lat": -33.265998,
    "lon": 151.403858
  },
  {
    "name": "Bushells ridge",
    "postcode": 2259,
    "state": "NSW",
    "lat": -33.210392,
    "lon": 151.476534
  },
  {
    "name": "Cedar brush creek",
    "postcode": 2259,
    "state": "NSW",
    "lat": -33.147255,
    "lon": 151.258292
  },
  {
    "name": "Chain valley bay",
    "postcode": 2259,
    "state": "NSW",
    "lat": -33.174102,
    "lon": 151.580195
  },
  {
    "name": "Crangan bay",
    "postcode": 2259,
    "state": "NSW",
    "lat": -33.175697,
    "lon": 151.590424
  },
  {
    "name": "Dooralong",
    "postcode": 2259,
    "state": "NSW",
    "lat": -33.189384,
    "lon": 151.350215
  },
  {
    "name": "Durren durren",
    "postcode": 2259,
    "state": "NSW",
    "lat": -33.171431,
    "lon": 151.382288
  },
  {
    "name": "Frazer park",
    "postcode": 2259,
    "state": "NSW",
    "lat": -33.186687,
    "lon": 151.621139
  },
  {
    "name": "Freemans",
    "postcode": 2259,
    "state": "NSW",
    "lat": -33.203791,
    "lon": 151.595646
  },
  {
    "name": "Gwandalan",
    "postcode": 2259,
    "state": "NSW",
    "lat": -33.139561,
    "lon": 151.587572
  },
  {
    "name": "Halloran",
    "postcode": 2259,
    "state": "NSW",
    "lat": -33.239446,
    "lon": 151.439518
  },
  {
    "name": "Hamlyn terrace",
    "postcode": 2259,
    "state": "NSW",
    "lat": -33.250574,
    "lon": 151.469872
  },
  {
    "name": "Jilliby",
    "postcode": 2259,
    "state": "NSW",
    "lat": -33.230854,
    "lon": 151.391869
  },
  {
    "name": "Kanwal",
    "postcode": 2259,
    "state": "NSW",
    "lat": -33.263412,
    "lon": 151.479653
  },
  {
    "name": "Kiar",
    "postcode": 2259,
    "state": "NSW",
    "lat": -33.197478,
    "lon": 151.436954
  },
  {
    "name": "Lake munmorah",
    "postcode": 2259,
    "state": "NSW",
    "lat": -33.194148,
    "lon": 151.57042
  },
  {
    "name": "Lemon tree",
    "postcode": 2259,
    "state": "NSW",
    "lat": -33.146102,
    "lon": 151.364803
  },
  {
    "name": "Little jilliby",
    "postcode": 2259,
    "state": "NSW",
    "lat": -33.235928,
    "lon": 151.349661
  },
  {
    "name": "Mannering park",
    "postcode": 2259,
    "state": "NSW",
    "lat": -33.150538,
    "lon": 151.537603
  },
  {
    "name": "Mardi",
    "postcode": 2259,
    "state": "NSW",
    "lat": -33.28342,
    "lon": 151.404775
  },
  {
    "name": "Moonee",
    "postcode": 2259,
    "state": "NSW",
    "lat": -33.166162,
    "lon": 151.612046
  },
  {
    "name": "Point wolstoncroft",
    "postcode": 2259,
    "state": "NSW",
    "lat": -33.110021,
    "lon": 151.583516
  },
  {
    "name": "Ravensdale",
    "postcode": 2259,
    "state": "NSW",
    "lat": -33.14747,
    "lon": 151.288584
  },
  {
    "name": "Rocky point",
    "postcode": 2259,
    "state": "NSW",
    "lat": -33.294922,
    "lon": 151.471707
  },
  {
    "name": "Summerland point",
    "postcode": 2259,
    "state": "NSW",
    "lat": -33.139085,
    "lon": 151.565431
  },
  {
    "name": "Tacoma",
    "postcode": 2259,
    "state": "NSW",
    "lat": -33.285489,
    "lon": 151.453689
  },
  {
    "name": "Tacoma south",
    "postcode": 2259,
    "state": "NSW",
    "lat": -33.289592,
    "lon": 151.457044
  },
  {
    "name": "Tuggerah",
    "postcode": 2259,
    "state": "NSW",
    "lat": -33.30701,
    "lon": 151.415901
  },
  {
    "name": "Tuggerawong",
    "postcode": 2259,
    "state": "NSW",
    "lat": -33.280657,
    "lon": 151.476312
  },
  {
    "name": "Wadalba",
    "postcode": 2259,
    "state": "NSW",
    "lat": -33.273033,
    "lon": 151.465618
  },
  {
    "name": "Wallarah",
    "postcode": 2259,
    "state": "NSW",
    "lat": -33.241851,
    "lon": 151.456522
  },
  {
    "name": "Warnervale",
    "postcode": 2259,
    "state": "NSW",
    "lat": -33.242434,
    "lon": 151.459786
  },
  {
    "name": "Watanobbi",
    "postcode": 2259,
    "state": "NSW",
    "lat": -33.269072,
    "lon": 151.431783
  },
  {
    "name": "Woongarrah",
    "postcode": 2259,
    "state": "NSW",
    "lat": -33.246082,
    "lon": 151.477239
  },
  {
    "name": "Wybung",
    "postcode": 2259,
    "state": "NSW",
    "lat": -33.193536,
    "lon": 151.596796
  },
  {
    "name": "Wyee",
    "postcode": 2259,
    "state": "NSW",
    "lat": -33.175844,
    "lon": 151.484958
  },
  {
    "name": "Wyee point",
    "postcode": 2259,
    "state": "NSW",
    "lat": -33.143718,
    "lon": 151.520566
  },
  {
    "name": "Wyong",
    "postcode": 2259,
    "state": "NSW",
    "lat": -33.28348,
    "lon": 151.422404
  },
  {
    "name": "Wyong creek",
    "postcode": 2259,
    "state": "NSW",
    "lat": -33.270222,
    "lon": 151.363156
  },
  {
    "name": "Wyongah",
    "postcode": 2259,
    "state": "NSW",
    "lat": -33.274859,
    "lon": 151.49038
  },
  {
    "name": "Yarramalong",
    "postcode": 2259,
    "state": "NSW",
    "lat": -33.222529,
    "lon": 151.277495
  },
  {
    "name": "Erina heights",
    "postcode": 2260,
    "state": "NSW",
    "lat": -33.426949,
    "lon": 151.413211
  },
  {
    "name": "Forresters beach",
    "postcode": 2260,
    "state": "NSW",
    "lat": -33.407108,
    "lon": 151.463884
  },
  {
    "name": "North avoca",
    "postcode": 2260,
    "state": "NSW",
    "lat": -33.459007,
    "lon": 151.435833
  },
  {
    "name": "Terrigal",
    "postcode": 2260,
    "state": "NSW",
    "lat": -33.448011,
    "lon": 151.444461
  },
  {
    "name": "Wamberal",
    "postcode": 2260,
    "state": "NSW",
    "lat": -33.418298,
    "lon": 151.446193
  },
  {
    "name": "Bateau bay",
    "postcode": 2261,
    "state": "NSW",
    "lat": -33.381213,
    "lon": 151.479104
  },
  {
    "name": "Bay village",
    "postcode": 2261,
    "state": "NSW",
    "lat": -33.376325,
    "lon": 151.473838
  },
  {
    "name": "Berkeley vale",
    "postcode": 2261,
    "state": "NSW",
    "lat": -33.341788,
    "lon": 151.43163
  },
  {
    "name": "Blue bay",
    "postcode": 2261,
    "state": "NSW",
    "lat": -33.357184,
    "lon": 151.500048
  },
  {
    "name": "Chittaway bay",
    "postcode": 2261,
    "state": "NSW",
    "lat": -33.32776,
    "lon": 151.429428
  },
  {
    "name": "Chittaway point",
    "postcode": 2261,
    "state": "NSW",
    "lat": -33.326616,
    "lon": 151.463661
  },
  {
    "name": "Glenning valley",
    "postcode": 2261,
    "state": "NSW",
    "lat": -33.353709,
    "lon": 151.425996
  },
  {
    "name": "Killarney vale",
    "postcode": 2261,
    "state": "NSW",
    "lat": -33.369601,
    "lon": 151.459783
  },
  {
    "name": "Long jetty",
    "postcode": 2261,
    "state": "NSW",
    "lat": -33.359163,
    "lon": 151.484178
  },
  {
    "name": "Magenta",
    "postcode": 2261,
    "state": "NSW",
    "lat": -33.313335,
    "lon": 151.519517
  },
  {
    "name": "Shelly beach",
    "postcode": 2261,
    "state": "NSW",
    "lat": -33.368675,
    "lon": 151.485687
  },
  {
    "name": "The entrance",
    "postcode": 2261,
    "state": "NSW",
    "lat": -33.344648,
    "lon": 151.496394
  },
  {
    "name": "The entrance north",
    "postcode": 2261,
    "state": "NSW",
    "lat": -33.326254,
    "lon": 151.511249
  },
  {
    "name": "Toowoon bay",
    "postcode": 2261,
    "state": "NSW",
    "lat": -33.35802,
    "lon": 151.496592
  },
  {
    "name": "Tumbi umbi",
    "postcode": 2261,
    "state": "NSW",
    "lat": -33.362679,
    "lon": 151.447302
  },
  {
    "name": "Blue haven",
    "postcode": 2262,
    "state": "NSW",
    "lat": -33.207351,
    "lon": 151.492751
  },
  {
    "name": "Budgewoi",
    "postcode": 2262,
    "state": "NSW",
    "lat": -33.234349,
    "lon": 151.554753
  },
  {
    "name": "Budgewoi peninsula",
    "postcode": 2262,
    "state": "NSW",
    "lat": -33.21956,
    "lon": 151.584067
  },
  {
    "name": "Buff point",
    "postcode": 2262,
    "state": "NSW",
    "lat": -33.238196,
    "lon": 151.535266
  },
  {
    "name": "Colongra",
    "postcode": 2262,
    "state": "NSW",
    "lat": -33.210058,
    "lon": 151.54323
  },
  {
    "name": "Doyalson",
    "postcode": 2262,
    "state": "NSW",
    "lat": -33.197168,
    "lon": 151.521116
  },